borough,block,lot,cd,bct2020,bctcb2020,zipcode,address,zonedist1,zonedist2,zonedist3,zonedist4,landuse,ownertype,ownername,numfloors,lottype,assesstot,yearbuilt,yearalter1,yearalter2,histdist,landmark,bbl,latitude,longitude
MN,582,30,102,1006700,10067003002,10014,42 LEROY STREET,C2-6,,,,02,,42 LEROY HOLDING LLC,4.0000000,5,1319850.00000,1837,0,0,Greenwich Village Historic District Extension II,,1005820030.00000000,40.7302874,-74.0043983
MN,583,2,102,1006700,10067004004,10014,422 HUDSON STREET,C1-6,,,,04,,HUDSON HERITAGE HOUSE LLC,4.0000000,5,891900.00000,1853,0,0,Greenwich Village Historic District,,1005830002.00000000,40.7303779,-74.0065667
MN,583,5,102,1006700,10067004004,10014,428 HUDSON STREET,C1-6,,,,04,,428 HUDSON STREET REALTY,4.0000000,5,1564650.00000,1847,0,0,Greenwich Village Historic District,,1005830005.00000000,40.7305563,-74.0064982
MN,583,9,102,1006700,10067004004,10014,436 HUDSON STREET,C1-6,,,,04,,APPLETON PENN INC,4.0000000,3,1890000.00000,1847,1964,0,Greenwich Village Historic District,,1005830009.00000000,40.7308088,-74.0065018
MN,583,12,102,1006700,10067004004,10014,64 MORTON STREET,R6,,,,02,,64 MORTON STREET LLC,5.0000000,5,1359450.00000,1891,1986,0,Greenwich Village Historic District,,1005830012.00000000,40.7306716,-74.0061987
MN,583,49,102,1006700,10067004004,10014,12 ST LUKES PLACE,R6,,,,01,,PAUL M. RUSSO,2.0000000,5,915600.00000,1852,2006,0,Greenwich Village Historic District,,1005830049.00000000,40.7303395,-74.0057116
MN,583,53,102,1006700,10067004004,10014,83 LEROY STREET,R6,,,,01,,SAINT PROPERTY LLC,3.0000000,5,851580.00000,1852,0,0,Greenwich Village Historic District,,1005830053.00000000,40.7303697,-74.0060219
MN,584,30,102,1006700,10067004002,10014,75 1/2 BEDFORD STREET,R6,,,,01,,"CHEZ MILLAY, LLC",3.0000000,5,238020.00000,1873,0,0,Greenwich Village Historic District,,1005840030.00000000,40.7313606,-74.0050658
MN,584,50,102,1006700,10067004002,10014,61 MORTON STREET,R6,,,,02,,61 MORTON STREET ASSOCIATES,3.5000000,5,2402550.00000,1836,1969,0,Greenwich Village Historic District,,1005840050.00000000,40.7311080,-74.0060545
MN,583,20,102,1006700,10067004004,10014,48 MORTON STREET,R6,,,,01,,EDWARD N WOLFF & JANE FORMAN,4.0000000,5,686220.00000,1854,0,0,Greenwich Village Historic District,,1005830020.00000000,40.7306030,-74.0055384
MN,583,26,102,1006700,10067004004,10014,36 MORTON STREET,C2-6,R6,,,02,,"UPPER BROADWAY,LLC",5.0000000,5,1089450.00000,1890,1984,0,Greenwich Village Historic District,,1005830026.00000000,40.7307019,-74.0049756
MN,583,29,102,1006700,10067004004,10014,59 BEDFORD STREET,C2-6,,,,03,,UNAVAILABLE OWNER,8.0000000,3,6081750.00000,1919,1983,0,Greenwich Village Historic District,,1005830029.00000000,40.7307540,-74.0047483
MN,585,30,102,1007300,10073003002,10014,62 BARROW STREET,R6,,,,02,,85 BEDFORD OWNERS INC,5.0000000,5,1477800.00000,1889,1982,0,Greenwich Village Historic District,,1005850030.00000000,40.7318684,-74.0054411
MN,585,33,102,1007300,10073003002,10014,68 BARROW STREET,R6,,,,02,,85 BEDFORD OWNERS INC,5.0000000,5,1693800.00000,1889,1982,0,Greenwich Village Historic District,,1005850033.00000000,40.7317970,-74.0056143
MN,585,47,102,1007300,10073003001,10014,496 HUDSON STREET,C1-6,,,,04,,494 HUDSON LLC,4.0000000,5,1415250.00000,1827,2003,2008,Greenwich Village Historic District,,1005850047.00000000,40.7328647,-74.0061268
MN,585,12,102,1007300,10073003002,10014,482 HUDSON STREET,C1-6,,,,03,,2 GROVE ST APARTMENT CORP,6.0000000,3,3015450.00000,1938,0,0,Greenwich Village Historic District,,1005850012.00000000,40.7322224,-74.0062422
MN,585,15,102,1007300,10073003002,10014,4 GROVE STREET,C1-6,R6,,,01,,4 GROVE STREET TRUST,2.5000000,5,307740.00000,1834,0,0,Greenwich Village Historic District,,1005850015.00000000,40.7322526,-74.0060437
MN,585,16,102,1007300,10073003002,10014,6 GROVE STREET,R6,,,,01,,RUSSELL E HORTON,2.5000000,5,287400.00000,1827,0,0,Greenwich Village Historic District,,1005850016.00000000,40.7322114,-74.0059788
MN,585,24,102,1007300,10073003002,10014,95 BEDFORD STREET,R6,,,,04,,"BEDFORD VILLAGE, LLC",4.0000000,5,2952000.00000,1894,1967,0,Greenwich Village Historic District,,1005850024.00000000,40.7321209,-74.0055350
MN,585,49,102,1007300,10073003001,10014,500 HUDSON STREET,C1-6,,,,04,,HUDSON 500 LLC,4.0000000,3,1741950.00000,1827,1986,2005,Greenwich Village Historic District,,1005850049.00000000,40.7329992,-74.0061412
MN,585,50,102,1007300,10073003001,10014,126 CHRISTOPHER STREET,C1-6,,,,02,,"117 BEDFORD, LLC",4.0000000,3,445200.00000,1843,0,0,Greenwich Village Historic District,,1005850050.00000000,40.7330266,-74.0059752
MN,586,13,102,1006700,10067003003,10014,20 LEROY STREET,R6,,,,02,,20 LEROY STREET LLC,3.0000000,5,388260.00000,1835,0,0,Greenwich Village Historic District Extension II,,1005860013.00000000,40.7305400,-74.0034530
MN,586,15,102,1006700,10067003003,10014,16 LEROY STREET,R6,,,,02,,JOHN D. ADAMS,3.0000000,5,391440.00000,1835,0,0,Greenwich Village Historic District Extension II,,1005860015.00000000,40.7305839,-74.0033122
MN,585,52,102,1007300,10073003001,10014,113 BEDFORD STREET,R6,C1-6,,,01,,SAPOKANIKAN LLC,3.0000000,5,231420.00000,1843,0,0,Greenwich Village Historic District,,1005850052.00000000,40.7329388,-74.0059031
MN,586,30,102,1006700,10067003003,10014,27 CARMINE STREET,R6,,,,08,X,PIOUS SOC MISSIONARIE,5.0000000,5,1223550.00000,1965,0,0,Greenwich Village Historic District Extension II,,1005860030.00000000,40.7303918,-74.0030597
MN,585,53,102,1007300,10073003001,10014,111 BEDFORD STREET,R6,C1-6,,,01,,"BRADBURN, JAMES",3.0000000,5,361200.00000,1844,2005,0,Greenwich Village Historic District,,1005850053.00000000,40.7328921,-74.0058886
MN,585,55,102,1007300,10073003001,10014,107 BEDFORD STREET,R6,C1-6,,,02,,"TREYZ, RUSSELL L",3.0000000,5,266880.00000,1844,0,0,Greenwich Village Historic District,,1005850055.00000000,40.7328153,-74.0058670
MN,585,67,102,1007300,10073003002,10014,4 GROVE COURT,R6,,,,01,,"CHRISTINE G. DUPUY , AS TRUSTEE",3.0000000,6,225060.00000,1854,0,0,Greenwich Village Historic District,,1005850067.00000000,40.7320303,-74.0058922
MN,586,5,102,1006700,10067003003,10014,44 BEDFORD STREET,C2-6,,,,04,,"VENDOME REALTY,",4.0000000,3,1925100.00000,1861,0,0,Greenwich Village Historic District Extension II,,1005860005.00000000,40.7304164,-74.0041204
MN,586,35,102,1006700,10067003003,10014,35 CARMINE STREET,R6,,,,04,,35 CARMINE STREET ASS,5.0000000,5,1721250.00000,1877,1986,2015,Greenwich Village Historic District Extension II,,1005860035.00000000,40.7302875,-74.0033916
MN,586,43,102,1006700,10067003001,10014,46 BEDFORD STREET,C2-6,,,,05,,TALLULAH LLC,1.0000000,3,1187100.00000,1937,1989,0,Greenwich Village Historic District Extension II,,1005860043.00000000,40.7305811,-74.0041746
MN,586,44,102,1006700,10067003001,10014,48 BEDFORD STREET,C2-6,,,,02,,"48 BEDFORD, LLC",5.0000000,5,3264750.00000,1890,2012,0,Greenwich Village Historic District Extension II,,1005860044.00000000,40.7306442,-74.0041962
MN,586,62,102,1006700,10067003001,10014,268 BLEECKER STREET,R7-2,,,,04,,"GETTY GROUP,INC.",4.0000000,5,1709100.00000,1833,0,0,Greenwich Village Historic District Extension II,,1005860062.00000000,40.7312920,-74.0032473
MN,586,64,102,1006700,10067003001,10014,264 BLEECKER STREET,R7-2,,,,04,,"LEWIS FAMILY VENTURE, LLC",3.5000000,5,447240.00000,1833,2010,0,Greenwich Village Historic District Extension II,,1005860064.00000000,40.7311932,-74.0032185
MN,586,65,102,1006700,10067003001,10014,262 BLEECKER STREET,R7-2,,,,04,,JOAN CAPRA,3.0000000,5,412080.00000,1833,0,0,Greenwich Village Historic District Extension II,,1005860065.00000000,40.7311493,-74.0031968
MN,586,76,102,1006700,10067003001,10014,15 LEROY STREET,R6,,,,04,,DAN BARRIE RLTY CNSTRCTN,5.0000000,5,764100.00000,1894,1987,0,Greenwich Village Historic District Extension II,,1005860076.00000000,40.7308556,-74.0036226
MN,587,7502,102,1006700,10067003000,10014,13 MORTON STREET,C2-6,,,,04,,UNAVAILABLE OWNER,5.0000000,0,2317152.00000,1896,0,0,Greenwich Village Historic District Extension II,,1005877502.00000000,40.7313579,-74.0038463
MN,588,9,102,1007300,10073003003,10014,26 GROVE STREET,R6,,,,03,,26 GROVE NY LLC,6.0000000,5,2311650.00000,1927,0,0,Greenwich Village Historic District,,1005880009.00000000,40.7323844,-74.0049577
MN,588,22,102,1007300,10073003003,10014,310 BLEECKER STREET,C1-6,,,,04,,310 BLEECKER ST/RLTY/CP,4.0000000,5,1582650.00000,1847,1989,0,Greenwich Village Historic District,,1005880022.00000000,40.7326589,-74.0040845
MN,586,79,102,1006700,10067003001,10014,21 LEROY STREET,C2-6,R6,,,02,,21 LEROY STREET LLC,6.0000000,5,1710450.00000,1899,1988,0,Greenwich Village Historic District Extension II,,1005860079.00000000,40.7307760,-74.0038751
MN,587,5,102,1006700,10067004003,10014,68 BEDFORD STREET,C2-6,,,,01,,STACEY CUNNINGHAM REVOCABLE TRUST,3.0000000,5,270300.00000,1821,0,0,Greenwich Village Historic District,,1005870005.00000000,40.7313332,-74.0046220
MN,587,7,102,1006700,10067004003,10014,72 BEDFORD STREET,R6,,,,02,,72 BEDFORD STREET LLC,6.0000000,3,1314000.00000,1901,0,0,Greenwich Village Historic District,,1005870007.00000000,40.7314814,-74.0047303
MN,587,50,102,1006700,10067004000,10014,49 BARROW STREET,C2-6,R6,,,01,,"DEWHURST, RONALD RICHARD",3.0000000,5,325020.00000,1826,0,0,Greenwich Village Historic District,,1005870050.00000000,40.7319754,-74.0043082
MN,588,24,102,1007300,10073003003,10014,306 BLEECKER STREET,C1-6,C2-6,,,04,,COURDON BLEECKER LLC,4.0000000,5,1582650.00000,1847,0,0,Greenwich Village Historic District,,1005880024.00000000,40.7325573,-74.0040232
MN,588,25,102,1007300,10073003003,10014,304 BLEECKER STREET,C2-6,C1-6,,,04,,304 BLEECKER TREVI LLC,4.0000000,5,1867500.00000,1829,2012,0,Greenwich Village Historic District,,1005880025.00000000,40.7325052,-74.0039943
MN,588,36,102,1007300,10073003003,10014,46 BARROW STREET,R6,,,,08,X,COOP SOC SETTLEMENT,3.0000000,5,489600.00000,1851,0,0,Greenwich Village Historic District,,1005880036.00000000,40.7322115,-74.0045608
MN,588,54,102,1007300,10073003000,10014,100 CHRISTOPHER STREET,R6,,,,04,,DELSHAH 100 CHRISTOPHER LLC,5.0000000,5,4746600.00000,1912,2012,0,Greenwich Village Historic District,,1005880054.00000000,40.7331337,-74.0048242
MN,588,61,102,1007300,10073003000,10014,326 BLEECKER STREET,C1-6,,,,04,,"GHS, LLC",4.0000000,5,1541250.00000,1854,2014,0,Greenwich Village Historic District,,1005880061.00000000,40.7332106,-74.0043660
MN,588,70,102,1007300,10073003000,10014,39 GROVE STREET,R6,,,,02,,39 GROVE STREET LLC,4.0000000,5,1940850.00000,1831,0,0,Greenwich Village Historic District,,1005880070.00000000,40.7329526,-74.0045392
MN,588,71,102,1007300,10073003000,10014,33 GROVE STREET,R6,,,,03,,35 GROVE LLC,5.0000000,5,6863400.00000,1888,1987,0,Greenwich Village Historic District,,1005880071.00000000,40.7328977,-74.0047196
MN,588,75,102,1007300,10073003000,10014,29 GROVE STREET,R6,,,,01,,ISABEL S KLERER,3.0000000,5,648660.00000,1841,0,0,Greenwich Village Historic District,,1005880075.00000000,40.7328181,-74.0049685
MN,588,66,102,1007300,10073003000,10014,316 BLEECKER STREET,C1-6,,,,04,,"GROVE TR, LLC.",4.0000000,3,1126350.00000,1854,2014,0,Greenwich Village Historic District,,1005880066.00000000,40.7329608,-74.0041531
MN,588,78,102,1007300,10073003000,10014,23 GROVE STREET,R6,,,,03,,ZAPATA 23 LLC,6.0000000,5,1091700.00000,1901,1980,0,Greenwich Village Historic District,,1005880078.00000000,40.7327467,-74.0052283
MN,589,4,102,1006700,10067001002,10014,243 BLEECKER STREET,R7-2,,,,04,,243 BLEECKER STREET LLC,4.0000000,5,2137050.00000,1829,1989,2009,Greenwich Village Historic District Extension II,,1005890004.00000000,40.7308694,-74.0025293
MN,589,6,102,1006700,10067001002,10014,247 BLEECKER STREET,R7-2,,,,04,,HAROLD S NATHAN,4.0000000,5,1069200.00000,1828,0,0,Greenwich Village Historic District Extension II,,1005890006.00000000,40.7309545,-74.0026195
MN,589,7,102,1006700,10067001002,10014,249 BLEECKER STREET,R7-2,,,,04,,"249 BLEECKER, LLC",4.0000000,5,416640.00000,1828,0,0,Greenwich Village Historic District Extension II,,1005890007.00000000,40.7309984,-74.0026448
MN,589,35,102,1006700,10067001002,10014,317 AVENUE OF THE AMER,R7-2,,,,04,,321 SIXTH AVENUE PARTNERS LLC,4.0000000,5,477240.00000,1828,1986,0,Greenwich Village Historic District Extension II,,1005890035.00000000,40.7310643,-74.0018329
MN,589,8,102,1006700,10067001002,10014,251 BLEECKER STREET,R7-2,,,,04,,ROSEMARY C. BELLA  TRUSTEE,4.0000000,5,507960.00000,1829,0,0,Greenwich Village Historic District Extension II,,1005890008.00000000,40.7310368,-74.0026700
MN,589,39,102,1006700,10067001002,10014,309 AVENUE OF THE AMER,R7-2,R6,,,05,,307 ASSETS LLC,2.0000000,5,1450800.00000,1828,1988,0,Greenwich Village Historic District Extension II,,1005890039.00000000,40.7309243,-74.0020242
MN,589,28,102,1006700,10067001002,10014,331 AVENUE OF THE AMER,R7-2,,,,05,,331 SIXTH AVE. LLC,1.0000000,4,1400850.00000,1941,0,0,Greenwich Village Historic District Extension II,,1005890028.00000000,40.7314458,-74.0015371
MN,589,30,102,1006700,10067001002,10014,327 AVENUE OF THE AMER,R7-2,,,,05,,323 SIXTH LLC,3.0000000,5,844200.00000,1845,2009,2004,Greenwich Village Historic District Extension II,,1005890030.00000000,40.7313058,-74.0015948
MN,589,44,102,1006700,10067001002,10014,5A CARMINE STREET,R7-2,,,,01,,"RUSH, HEATHER MCCONNELL",3.0000000,6,257040.00000,1862,1987,0,Greenwich Village Historic District Extension II,,1005890044.00000000,40.7308117,-74.0021468
MN,589,46,102,1006700,10067001002,10014,11 CARMINE STREET,R7-2,,,,04,,11 CARMINE HOGO LLC,5.0000000,5,1951650.00000,1891,0,0,Greenwich Village Historic District Extension II,,1005890046.00000000,40.7306223,-74.0023056
MN,589,47,102,1006700,10067001002,10014,13 CARMINE STREET,R7-2,,,,04,,FDG MANHATTAN REALTY INC.,5.0000000,5,1354050.00000,1891,0,0,Greenwich Village Historic District Extension II,,1005890047.00000000,40.7305949,-74.0023922
MN,589,48,102,1006700,10067001002,10014,233 BLEECKER STREET,R7-2,,,,04,,233 BLEECKER STREET LLC,2.0000000,3,1899450.00000,1822,2015,0,Greenwich Village Historic District Extension II,,1005890048.00000000,40.7305647,-74.0024752
MN,589,144,102,1006700,10067001002,10014,5B CARMINE STREET,R6,R7-2,,,01,,"CHIPMAN, RALPH",3.0000000,6,257040.00000,1862,1987,0,Greenwich Village Historic District Extension II,,1005890144.00000000,40.7308447,-74.0022118
MN,589,7501,102,1006700,10067001002,10014,2 CORNELIA STREET,R7-2,,,,04,,TWO CORNELIA CONDO ASSOC,12.0000000,5,11594698.00000,1907,1981,0,Greenwich Village Historic District Extension II,,1005897501.00000000,40.7315501,-74.0013927
MN,590,2,102,1006700,10067001001,10014,259 BLEECKER STREET,R7-2,,,,04,,259 BLEECKER,6.0000000,5,3406050.00000,1904,0,0,Greenwich Village Historic District Extension II,,1005900002.00000000,40.7313662,-74.0028324
MN,590,7,102,1006700,10067001001,10014,269 BLEECKER STREET,R7-2,,,,08,X,NEIGHBORHOOD CHURCH,3.0000000,5,294750.00000,1836,0,0,Greenwich Village Historic District Extension II,,1005900007.00000000,40.7315089,-74.0029154
MN,590,10,102,1006700,10067001001,10014,275 BLEECKER STREET,R7-2,,,,04,,275 BLEECKER STREET LLC,4.0000000,5,2128500.00000,1818,1988,2011,Greenwich Village Historic District Extension II,,1005900010.00000000,40.7316489,-74.0029984
MN,590,13,102,1006700,10067001001,10014,30 JONES STREET,R7-2,R6,,,02,,GREENWICH HSE APTS,3.0000000,5,1664550.00000,1844,0,0,Greenwich Village Historic District Extension II,INDIVIDUAL LANDMARK,1005900013.00000000,40.7316873,-74.0028108
MN,590,16,102,1006700,10067001001,10014,22 JONES STREET,R6,,,,04,,TRILOBITE LLC,6.0000000,5,3622500.00000,1895,1976,0,Greenwich Village Historic District Extension II,,1005900016.00000000,40.7317724,-74.0025726
MN,590,25,102,1006700,10067001001,10014,8 JONES STREET,R6,,,,02,,JAKEY HOLDINGS 1 LLC,6.0000000,5,1730250.00000,1872,1986,0,Greenwich Village Historic District Extension II,,1005900025.00000000,40.7319975,-74.0019268
MN,590,59,102,1006700,10067001000,10014,25 BARROW STREET,C2-6,R6,,,04,,NFJ REALTY LLC,3.0000000,5,486420.00000,1826,0,0,Greenwich Village Historic District,,1005900059.00000000,40.7323762,-74.0029299
MN,590,64,102,1006700,10067001000,10014,15 BARROW STREET,R6,,,,04,,RAGANATI REALTY CORP,4.0000000,5,2462850.00000,1896,1968,0,Greenwich Village Historic District,,1005900064.00000000,40.7325217,-74.0025185
MN,590,76,102,1006700,10067001000,10014,7 JONES STREET,R6,,,,02,,"LL 7 JONES STREET, LLC",5.0000000,5,1870650.00000,1888,1985,0,Greenwich Village Historic District Extension II,,1005900076.00000000,40.7323735,-74.0021397
MN,590,77,102,1006700,10067001000,10014,9 JONES STREET,R6,,,,03,,JONES ST OWNERS CORP,7.0000000,5,4384800.00000,1902,1983,0,Greenwich Village Historic District Extension II,,1005900077.00000000,40.7323433,-74.0022227
MN,590,79,102,1006700,10067001000,10014,13 JONES STREET,R6,,,,03,,JONES ST APTS INC,6.0000000,5,3635100.00000,1889,1986,0,Greenwich Village Historic District Extension II,,1005900079.00000000,40.7322747,-74.0024211
MN,590,81,102,1006700,10067001000,10014,17 JONES STREET,R6,,,,04,,"MCGURK-STELLA, HARRIET E",3.0000000,5,1106220.00000,1882,0,0,Greenwich Village Historic District Extension II,,1005900081.00000000,40.7322308,-74.0025438
MN,590,85,102,1006700,10067001000,10014,25 JONES STREET,R6,,,,02,,"JONES STREET BUILDING ASSOCIATES, LLC",5.0000000,5,1408050.00000,1872,1980,0,Greenwich Village Historic District Extension II,,1005900085.00000000,40.7321127,-74.0028757
MN,590,32,102,1006700,10067001001,10014,162 WEST 4 STREET,R7-2,R6,,,04,,162 WEST REALTY LLC,5.0000000,3,2095650.00000,1891,1987,2015,Greenwich Village Historic District Extension II,,1005900032.00000000,40.7318383,-74.0014108
MN,590,43,102,1006700,10067001001,10014,25 CORNELIA STREET,R6,,,,02,,NEW JHT CORP.,6.0000000,5,2703150.00000,1903,1988,0,Greenwich Village Historic District Extension II,,1005900043.00000000,40.7315473,-74.0023561
MN,590,49,102,1006700,10067001000,10014,281 BLEECKER STREET,R7-2,C2-6,,,04,,MONGIOI LIVING TRUST,4.0000000,3,2484450.00000,1813,0,0,Greenwich Village Historic District Extension II,,1005900049.00000000,40.7318877,-74.0031860
MN,590,56,102,1006700,10067001000,10014,27 BARROW STREET,C2-6,,,,08,X,COOP-SOC SETTLEMNT SO,7.0000000,5,1957050.00000,1917,0,0,Greenwich Village Historic District,,1005900056.00000000,40.7323186,-74.0030958
MN,590,86,102,1006700,10067001000,10014,27 JONES STREET,R6,,,,02,,"JONES STREET BUILDING ASSOCIATES, LLC",5.0000000,5,1408050.00000,1872,0,0,Greenwich Village Historic District Extension II,,1005900086.00000000,40.7320825,-74.0029551
MN,590,137,102,1006700,10067001001,10014,13 REAR CORNELIA STREET,R6,,,,01,,"13 CORNELIA REAR, LLC",2.0000000,6,305160.00000,1851,0,0,Greenwich Village Historic District Extension II,,1005900137.00000000,40.7317779,-74.0018979
MN,591,4,102,1007300,10073004003,10014,305 BLEECKER STREET,C4-5,,,,04,,BLDG BLEECKER LLC,3.0000000,5,851820.00000,1931,2012,2014,Greenwich Village Historic District,,1005910004.00000000,40.7326864,-74.0036227
MN,590,149,102,1006700,10067001001,10014,35 CORNELIA STREET,R7-2,,,,01,,MARIE NOELLE CHYNN LIVING TRUST,3.0000000,5,279060.00000,1854,1992,0,Greenwich Village Historic District Extension II,,1005900149.00000000,40.7313140,-74.0026736
MN,591,6,102,1007300,10073004003,10014,309 BLEECKER STREET,C4-5,,,,05,,309-313 BLEECKER STREET LP,1.0000000,5,3186450.00000,1933,1959,0,Greenwich Village Historic District,,1005910006.00000000,40.7328044,-74.0036696
MN,590,7502,102,1006700,10067001000,10014,9 BARROW STREET,R6,,,,04,,LOWELL ASSOCIATES,8.0000000,5,12818250.00000,1897,0,0,Greenwich Village Historic District,,1005907502.00000000,40.7326041,-74.0022804
MN,591,17,102,1007300,10073004004,10014,97 7 AVENUE SOUTH,C4-5,,,,05,,AVEL REALTY LLC,1.0000000,5,1294200.00000,1919,1960,0,Greenwich Village Historic District,,1005910017.00000000,40.7330185,-74.0028577
MN,591,2,102,1007300,10073004003,10014,301 BLEECKER STREET,C4-5,,,,05,,STEVEN ELI,2.0000000,3,167850.00000,1926,0,0,Greenwich Village Historic District,,1005910002.00000000,40.7325354,-74.0036371
MN,591,19,102,1007300,10073004004,10014,101 7 AVENUE SOUTH,C4-5,,,,04,,70 GROVE STREET LLC,5.0000000,5,3153600.00000,1899,2011,2005,Greenwich Village Historic District,,1005910019.00000000,40.7330844,-74.0027747
MN,591,22,102,1007300,10073004004,10014,74 GROVE STREET,C4-5,,,,04,,J P MORGAN CHASE,3.5000000,3,1660500.00000,1919,1994,0,Greenwich Village Historic District,,1005910022.00000000,40.7331420,-74.0025943
MN,591,34,102,1007300,10073004004,10014,18 BARROW STREET,C4-5,,,,05,,"EIGHTY-NINE SEVENTH, LLC",2.0000000,5,816300.00000,1923,2006,0,Greenwich Village Historic District,,1005910034.00000000,40.7326233,-74.0031067
MN,591,40,102,1007300,10073004002,10014,317 BLEECKER STREET,C1-6,C4-5,,,04,,49 GROVE REALTY LLC,6.0000000,3,9422100.00000,1889,2012,0,Greenwich Village Historic District,,1005910040.00000000,40.7331502,-74.0038031
MN,591,48,102,1007300,10073004002,10014,82 CHRISTOPHER STREET,R6,,,,04,,82 CHRISTOPHER STREET LLC,5.0000000,5,2772450.00000,1892,1968,0,Greenwich Village Historic District,,1005910048.00000000,40.7333396,-74.0036227
MN,592,15,102,1007100,10071005005,10014,108 WEST WASHINGTON PLCE,R6,,,,02,,THE ROBIN GREEN TRUST DATED 9/8/2000,3.0000000,5,643260.00000,1833,0,0,Greenwich Village Historic District,,1005920015.00000000,40.7323955,-74.0011258
MN,591,51,102,1007300,10073004002,10014,61 GROVE STREET,C4-5,,,,04,,61 GROVE ST. OWNER LLC,5.0000000,2,2499300.00000,1890,1986,0,Greenwich Village Historic District,,1005910051.00000000,40.7333259,-74.0033160
MN,592,16,102,1007100,10071005005,10014,106 WEST WASHINGTON PLCE,R7-2,R6,,,02,,106 WASHINGTON PLACE LLC,3.5000000,5,691200.00000,1833,2012,0,Greenwich Village Historic District,,1005920016.00000000,40.7323653,-74.0010644
MN,592,8,102,1007100,10071005005,10014,122 WEST WASHINGTON PLCE,R6,,,,01,,122 WASHINGTON PLACE LLC,4.0000000,5,373920.00000,1833,0,0,Greenwich Village Historic District,,1005920008.00000000,40.7326013,-74.0015299
MN,592,17,102,1007100,10071005005,10014,104 WEST WASHINGTON PLCE,R7-2,,,,04,,"JOSIP CALE, MANAGING MEMBER",3.0000000,5,1252800.00000,1855,0,0,Greenwich Village Historic District,,1005920017.00000000,40.7323955,-74.0009453
MN,592,18,102,1007100,10071005005,10014,361 AVENUE OF THE AMER,R7-2,,,,04,,AFRICAN AMERICAN CO.,4.0000000,3,1978200.00000,1827,0,0,Greenwich Village Historic District,,1005920018.00000000,40.7323351,-74.0008191
MN,592,21,102,1007100,10071005005,10014,355 AVENUE OF THE AMER,R7-2,,,,04,,ANTHONY PELLEGRINO,4.0000000,5,2288250.00000,1829,0,0,Greenwich Village Historic District,,1005920021.00000000,40.7321979,-74.0009526
MN,592,22,102,1007100,10071005005,10014,353 AVENUE OF THE AMER,R7-2,,,,04,,353 6 AVE. REALTY LLC,4.0000000,5,741600.00000,1829,2016,0,Greenwich Village Historic District,,1005920022.00000000,40.7321402,-74.0009814
MN,592,29,102,1007100,10071005005,10014,165 WEST 4 STREET,R6,,,,04,,SOUTH NEW YORK VENTURES LLC,6.0000000,5,3735900.00000,1905,1989,0,Greenwich Village Historic District,,1005920029.00000000,40.7322226,-74.0013062
MN,592,23,102,1007100,10071005005,10014,351 AVENUE OF THE AMER,R7-2,,,,04,,"351 6TH AVENUE, LLC",4.0000000,5,2205900.00000,1877,0,0,Greenwich Village Historic District,,1005920023.00000000,40.7320908,-74.0010175
MN,592,36,102,1007100,10071005005,10014,179 WEST 4 STREET,R6,,,,04,,WEST FOURTH STREET PARTNERS LLC,2.0000000,5,531000.00000,1834,0,0,Greenwich Village Historic District,,1005920036.00000000,40.7324723,-74.0016237
MN,592,28,102,1007100,10071005005,10014,163 WEST 4 STREET,R7-2,R6,,,04,,ROBIN ELI EMMA LLC,4.0000000,5,2119500.00000,1847,0,0,Greenwich Village Historic District,,1005920028.00000000,40.7321402,-74.0012304
MN,592,45,102,1007100,10071005002,10014,90 GROVE STREET,R6,,,,01,,90 GROVE STREET LLC,2.0000000,5,712560.00000,1827,2006,0,Greenwich Village Historic District,,1005920045.00000000,40.7333836,-74.0018943
MN,592,48,102,1007100,10071005002,10014,96 GROVE STREET,R6,,,,04,,96 LLC,4.0000000,3,2011950.00000,1826,1989,0,Greenwich Village Historic District,,1005920048.00000000,40.7335373,-74.0017248
MN,592,61,102,1007100,10071005002,10014,144 WAVERLY PLACE,R6,,,,02,,MF TOWNHOUSE LLC,4.0000000,5,2317500.00000,1839,0,0,Greenwich Village Historic District,,1005920061.00000000,40.7330624,-74.0008588
MN,592,56,102,1007100,10071005002,10014,154 WAVERLY PLACE,R6,,,,01,,154 WAVERLY PLACE LLC,4.0000000,5,917100.00000,1839,1999,1999,Greenwich Village Historic District,,1005920056.00000000,40.7332326,-74.0012015
MN,592,63,102,1007100,10071005002,10014,138 WAVERLY PLACE,R6,,,,08,X,FRIARS OF ATONEMENT I,4.0000000,5,665100.00000,1895,0,0,Greenwich Village Historic District,,1005920063.00000000,40.7329883,-74.0007108
MN,592,71,102,1007100,10071005002,10014,365 AVENUE OF THE AMER,R7-2,,,,08,X,RC CHUR ST JOSEPH,2.0000000,3,1954350.00000,1834,0,0,Greenwich Village Historic District,,1005920071.00000000,40.7326096,-74.0007000
MN,592,74,102,1007100,10071005002,10014,113 WEST WASHINGTON PLCE,R6,,,,02,,"NEWMAN FAMILY ENTERPRISES, LTD.",4.0000000,5,2351700.00000,1836,1989,0,Greenwich Village Historic District,,1005920074.00000000,40.7328237,-74.0010320
MN,593,5,102,1007100,10071005000,10014,11 GAY STREET,R6,C4-5,,,02,,"TATTERSALL, IAN",3.0000000,5,420420.00000,1860,0,0,Greenwich Village Historic District,,1005930005.00000000,40.7334934,-74.0003320
MN,593,7,102,1007100,10071005000,10014,15 GAY STREET,R6,C4-5,,,02,,405 SIXTH LLC,3.0000000,5,978300.00000,1844,0,0,Greenwich Village Historic District,,1005930007.00000000,40.7335812,-74.0002634
MN,592,62,102,1007100,10071005002,10014,140 WAVERLY PLACE,R6,,,,03,,140 WAVERLY ASSOCIAT,6.0000000,5,1702800.00000,1926,1984,0,Greenwich Village Historic District,,1005920062.00000000,40.7330268,-74.0007866
MN,593,13,102,1007100,10071005000,10014,403 AVENUE OF THE AMER,C4-5,,,,05,,405 SIXTH LLC,1.0000000,3,4495050.00000,1944,0,0,Greenwich Village Historic District,,1005930013.00000000,40.7337404,-73.9999026
MN,593,28,102,1007100,10071005000,10014,385 AVENUE OF THE AMER,C4-5,,,,04,,135 WAVERLY REALTY LLC,4.0000000,3,2997450.00000,1877,0,0,Greenwich Village Historic District,,1005930028.00000000,40.7331503,-74.0002706
MN,593,7502,102,1007100,10071005001,10014,147 WAVERLY PLACE,R6,,,,03,,UNAVAILABLE OWNER,13.0000000,0,5849554.00000,1912,2007,0,Greenwich Village Historic District,,1005937502.00000000,40.7335153,-74.0008912
MN,603,61,102,1006900,10069001003,10014,95 BARROW STREET,C1-6,,,,01,,STAGE AND SCREEN LLC,3.0000000,5,411120.00000,1847,2011,0,Greenwich Village Historic District,,1006030061.00000000,40.7315581,-74.0070720
MN,605,29,102,1006900,10069001000,10014,491 HUDSON STREET,R6,,,,01,,THE BOARD OF MANAGERS OF THE DIOCESAN MI SSIONARY ETC.,3.0000000,5,384660.00000,1826,0,0,Greenwich Village Historic District,,1006050029.00000000,40.7327219,-74.0067546
MN,593,22,102,1007100,10071005000,10014,399 AVENUE OF THE AMER,C4-5,,,,05,,SIXTH AVENUE OWNER LLC,2.0000000,5,1172700.00000,1879,0,0,Greenwich Village Historic District,,1005930022.00000000,40.7334989,-74.0000144
MN,593,26,102,1007100,10071005000,10014,389 AVENUE OF THE AMER,C4-5,,,,04,,WALSAM SIXTH AVE CO,4.0000000,5,757350.00000,1826,0,0,Greenwich Village Historic District,,1005930026.00000000,40.7332628,-74.0001876
MN,593,27,102,1007100,10071005000,10014,387 AVENUE OF THE AMER,C4-5,,,,04,,WALSAM SIXTH AVE CO,4.0000000,5,1206450.00000,1827,0,0,Greenwich Village Historic District,,1005930027.00000000,40.7332052,-74.0002309
MN,605,48,102,1006900,10069001000,10014,94 BARROW STREET,R6,,,,01,,THE BOARD OF MANAGERS OF THE DIOCESAN MI SSIONARY ETC.,3.0000000,5,405060.00000,1827,2016,0,Greenwich Village Historic District,,1006050048.00000000,40.7319232,-74.0072452
MN,610,24,102,1007300,10073006004,10014,178 WAVERLY PLACE,R6,,,,02,,"1776 WAVERLY, LLC",3.0000000,5,1683450.00000,1839,2005,0,Greenwich Village Historic District,,1006100024.00000000,40.7342043,-74.0015480
MN,610,25,102,1007300,10073006004,10014,176 WAVERLY PLACE,R6,,,,02,,"1776 WAVERLY, LLC",3.0000000,5,1535850.00000,1839,2005,0,Greenwich Village Historic District,,1006100025.00000000,40.7341576,-74.0015407
MN,612,7,102,1007300,10073006001,10014,48 PERRY STREET,R6,,,,02,,48 PERRY ASSOCIATES,5.0000000,5,1298250.00000,1885,1985,0,Greenwich Village Historic District,,1006120007.00000000,40.7353900,-74.0029877
MN,612,11,102,1007300,10073006001,10014,40 PERRY STREET,R6,,,,01,,KAUFMAN IRENE,3.0000000,5,617520.00000,1845,0,0,Greenwich Village Historic District,,1006120011.00000000,40.7354421,-74.0026377
MN,612,64,102,1007100,10071004002,10014,41 GREENWICH AVENUE,C1-6,,,,04,,"41 GREENWICH AVENUE, LLC",5.0000000,5,1974600.00000,1849,2018,0,Greenwich Village Historic District,,1006120064.00000000,40.7354065,-74.0006928
MN,612,69,102,1007100,10071004002,10014,11 CHARLES STREET,R6,C2-6,,,02,,DG FAMILY TRUST,4.0000000,5,2635200.00000,1848,1985,0,Greenwich Village Historic District,,1006120069.00000000,40.7353982,-74.0011222
MN,613,9,102,1007300,10073006000,10014,252 WEST 11 STREET,R6,,,,02,,"STOOPSIDE, LLC",3.0000000,3,1016550.00000,1869,1987,0,Greenwich Village Historic District,,1006130009.00000000,40.7360624,-74.0033955
MN,613,14,102,1007300,10073006000,10014,242 WEST 11 STREET,R6,,,,02,,"HAMILTON, EVELYN",3.0000000,5,1287450.00000,1842,0,0,Greenwich Village Historic District,,1006130014.00000000,40.7360707,-74.0030491
MN,613,17,102,1007300,10073006000,10014,232 WEST 11 STREET,R6,,,,08,X,GREATER NEW YORK CORP,2.0000000,5,1633500.00000,1881,0,0,Greenwich Village Historic District,,1006130017.00000000,40.7360762,-74.0027316
MN,610,30,102,1007300,10073006004,10014,39 CHRISTOPHER STREET,R6,,,,04,,VILLAGE REALTY LLC,6.0000000,5,2434950.00000,1908,0,0,Greenwich Village Historic District,,1006100030.00000000,40.7339682,-74.0015876
MN,610,52,102,1007100,10071004004,10014,130 WEST 10 STREET,C1-6,,,,04,,10TH ST. WEST VILLAGE LLC,3.0000000,5,386940.00000,1862,1986,2011,Greenwich Village Historic District,,1006100052.00000000,40.7345117,-74.0003067
MN,610,55,102,1007100,10071004004,10014,17 GREENWICH AVENUE,C1-6,,,,04,,BLDG OCEANSIDE LLC,5.0000000,5,1483650.00000,1890,0,0,Greenwich Village Historic District,,1006100055.00000000,40.7343909,-74.0001371
MN,610,68,102,1007100,10071004004,10014,17 CHRISTOPHER STREET,R6,,,,01,,"JOHNSON, PETER  J",3.0000000,5,393060.00000,1827,0,0,Greenwich Village Historic District,,1006100068.00000000,40.7341219,-74.0006495
MN,611,12,102,1007300,10073006002,10014,54 CHARLES STREET,C2-6,,,,01,,54 CHARLES LLC,3.0000000,5,881940.00000,1840,0,0,Greenwich Village Historic District,,1006110012.00000000,40.7347889,-74.0025619
MN,611,15,102,1007300,10073006002,10014,48 CHARLES STREET,C2-6,,,,04,,"48 CHARLES STREET, LLC",3.0000000,4,2796750.00000,1840,1986,2009,Greenwich Village Historic District,,1006110015.00000000,40.7348630,-74.0023635
MN,611,16,102,1007300,10073006002,10014,44 CHARLES STREET,C2-6,,,,04,,AYWANA LLC,3.0000000,3,395280.00000,1921,0,0,Greenwich Village Historic District,,1006110016.00000000,40.7349206,-74.0022913
MN,611,30,102,1007300,10073006003,10014,186 WAVERLY PLACE,C2-6,,,,04,,WAVERLY & WEST 10TH REALTY LLC,3.0000000,3,583650.00000,1826,1978,0,Greenwich Village Historic District,,1006110030.00000000,40.7345446,-74.0016237
MN,611,34,102,1007300,10073006003,10014,167 WEST 10 STREET,C2-6,,,,04,,"131 & 137 7TH AVE. SOUTH,",3.0000000,3,611550.00000,1929,0,0,Greenwich Village Historic District,,1006110034.00000000,40.7344952,-74.0020712
MN,611,43,102,1007100,10071004003,10014,191 WAVERLY PLACE,R6,,,,02,,ANTHONY JULIUS NARO AS TRUSTEE,4.0000000,5,2283300.00000,1864,1985,0,Greenwich Village Historic District,,1006110043.00000000,40.7348081,-74.0012774
MN,611,44,102,1007100,10071004003,10014,193 WAVERLY PLACE,R6,,,,01,,"BEHAR, HENRY",3.0000000,5,677700.00000,1847,0,0,Greenwich Village Historic District,,1006110044.00000000,40.7348657,-74.0012810
MN,611,51,102,1007100,10071004003,10014,12 CHARLES STREET,R6,,,,03,,12 CHARLES LLC,6.0000000,5,2718000.00000,1903,1985,0,Greenwich Village Historic District,,1006110051.00000000,40.7350195,-74.0009526
MN,611,54,102,1007100,10071004003,10014,6 CHARLES STREET,C1-6,R6,,,03,,ELK 6 CHARLES LLC,6.0000000,5,2479500.00000,1902,1985,0,Greenwich Village Historic District,,1006110054.00000000,40.7350524,-74.0007361
MN,611,57,102,1007100,10071004003,10014,37 GREENWICH AVENUE,C1-6,,,,04,,"WACO ENTERPRISES, LLC",4.0000000,3,3402000.00000,1845,1985,2007,Greenwich Village Historic District,,1006110057.00000000,40.7351759,-74.0005340
MN,611,74,102,1007100,10071004003,10014,149 WEST 10 STREET,R6,,,,01,,"CEM WEST VILLAGE, INC",3.0000000,5,844140.00000,1834,2005,2005,Greenwich Village Historic District,,1006110074.00000000,40.7346846,-74.0011691
MN,612,1,102,1007300,10073006001,10014,255 WEST 4 STREET,R6,,,,02,,255 WEST 4 LLC,3.0000000,5,1431450.00000,1871,0,0,Greenwich Village Historic District,,1006120001.00000000,40.7352170,-74.0030563
MN,612,16,102,1007300,10073006001,10014,30 PERRY STREET,C2-6,R6,,,02,,"30 PERRY STREET, LLC",3.0000000,5,1630800.00000,1845,2014,2005,Greenwich Village Historic District,,1006120016.00000000,40.7354970,-74.0022661
MN,612,40,102,1007300,10073006001,10014,41 CHARLES STREET,R6,,,,01,,CHARLES REEF LLC,4.0000000,5,693780.00000,1869,2014,0,Greenwich Village Historic District,,1006120040.00000000,40.7351320,-74.0028686
MN,612,42,102,1007300,10073006001,10014,45 CHARLES STREET,R6,,,,01,,EILEEN ROBERT,3.0000000,5,565440.00000,1869,0,0,Greenwich Village Historic District,,1006120042.00000000,40.7350880,-74.0029805
MN,612,53,102,1007100,10071004002,10014,8 PERRY STREET,C2-6,,,,01,,EIGHT PERRY LLC,3.0000000,5,996420.00000,1849,2011,0,Greenwich Village Historic District,,1006120053.00000000,40.7356535,-74.0012016
MN,612,55,102,1007100,10071004002,10014,4 PERRY STREET,C2-6,C1-6,,,02,,FOURPERRY LLC,3.0000000,5,1724400.00000,1849,1985,0,Greenwich Village Historic District,,1006120055.00000000,40.7356782,-74.0010428
MN,612,57,102,1007100,10071004002,10014,55 GREENWICH AVENUE,C1-6,,,,04,,55 GREENWICH AVENUE LLC,5.0000000,3,2812050.00000,1849,0,0,Greenwich Village Historic District,,1006120057.00000000,40.7357935,-74.0008732
MN,612,59,102,1007100,10071004002,10014,51 GREENWICH AVENUE,C1-6,,,,04,,"LANYARD REALTY CO.,L.L.C.",5.0000000,5,2882700.00000,1848,0,0,Greenwich Village Historic District,,1006120059.00000000,40.7356727,-74.0008552
MN,613,21,102,1007300,10073006000,10014,228 WEST 11 STREET,R6,,,,01,,228 TRUST A,3.0000000,5,859020.00000,1838,0,0,Greenwich Village Historic District,,1006130021.00000000,40.7361366,-74.0024609
MN,613,29,102,1007300,10073006000,10014,19 PERRY STREET,R6,,,,02,,"GOODALE, RIVEL DEBORAH",3.0000000,5,480060.00000,1845,0,0,Greenwich Village Historic District,,1006130029.00000000,40.7358895,-74.0019954
MN,613,30,102,1007300,10073006000,10014,21 PERRY STREET,R6,,,,02,,"GINSBURG, ADAM",3.0000000,5,557520.00000,1845,2010,0,Greenwich Village Historic District,,1006130030.00000000,40.7358786,-74.0020640
MN,613,32,102,1007300,10073006000,10014,25 PERRY STREET,R6,,,,01,,DOYLE  STEPHEN,3.0000000,5,689400.00000,1851,0,0,Greenwich Village Historic District,,1006130032.00000000,40.7358731,-74.0022083
MN,613,33,102,1007300,10073006000,10014,27 PERRY STREET,R6,,,,01,,RUTH LLC,3.0000000,5,842040.00000,1848,1978,0,Greenwich Village Historic District,,1006130033.00000000,40.7358703,-74.0022877
MN,613,37,102,1007300,10073006000,10014,35 PERRY STREET,R6,,,,02,,35 PERRY ST OWNERS CORP,4.0000000,5,925200.00000,1855,2018,0,Greenwich Village Historic District,,1006130037.00000000,40.7358099,-74.0026341
MN,613,42,102,1007300,10073006000,10014,45 PERRY STREET,R6,,,,02,,45 PERRY ST OWNERS CORP,5.0000000,5,1908900.00000,1889,0,0,Greenwich Village Historic District,,1006130042.00000000,40.7358072,-74.0030058
MN,613,43,102,1007300,10073006000,10014,47 PERRY STREET,R6,,,,02,,1819 WEEKES AVE REALTY CORP,5.0000000,5,2072250.00000,1889,0,0,Greenwich Village Historic District,,1006130043.00000000,40.7357934,-74.0031032
MN,613,47,102,1007100,10071004001,10014,212 WEST 11 STREET,C2-6,,,,02,,"MILITE, CHARLES",3.0000000,5,1473300.00000,1856,1975,0,Greenwich Village Historic District,,1006130047.00000000,40.7363012,-74.0017320
MN,613,49,102,1007100,10071004001,10014,208 WEST 11 STREET,C2-6,,,,01,,"BOLGER, KATHERINE M",3.0000000,5,628080.00000,1856,1986,2013,Greenwich Village Historic District,,1006130049.00000000,40.7363232,-74.0015913
MN,613,7501,102,1007300,10073006000,10014,31 PERRY STREET,R6,,,,04,,NAME NOT ON FILE,4.0000000,5,4087800.00000,1901,0,0,Greenwich Village Historic District,,1006137501.00000000,40.7358621,-74.0024754
MN,614,3,102,1007700,10077005001,10014,291 WEST 4 STREET,R6,,,,01,,"SANNI , NOAMAN",3.0000000,5,460260.00000,1828,2012,0,Greenwich Village Historic District,,1006140003.00000000,40.7365812,-74.0034533
MN,614,6,102,1007700,10077005001,10014,297 WEST 4 STREET,R6,,,,01,,THE LAWRENCE WEINER QUALIFIED PERSONAL R ESIDENCE T,3.0000000,5,514440.00000,1911,2006,2006,Greenwich Village Historic District,,1006140006.00000000,40.7367294,-74.0034966
MN,614,8,102,1007700,10077005001,10014,48 BANK STREET,R6,,,,01,,"48 RUE DE RIVE, LLC",2.0000000,5,735360.00000,1910,0,0,Greenwich Village Historic District,,1006140008.00000000,40.7367047,-74.0033234
MN,614,9,102,1007700,10077005001,10014,46 BANK STREET,R6,,,,02,,BANJO REALTY LLC,5.0000000,5,614700.00000,1889,0,0,Greenwich Village Historic District,,1006140009.00000000,40.7367129,-74.0032512
MN,614,13,102,1007700,10077005001,10014,38 BANK STREET,R6,,,,02,,ANDREW D ARONS,3.0000000,5,752580.00000,1851,0,0,Greenwich Village Historic District,,1006140013.00000000,40.7367541,-74.0029770
MN,614,14,102,1007700,10077005001,10014,36 BANK STREET,R6,,,,01,,TOWNHOUSE NO. 36 LLC,3.0000000,5,829920.00000,1851,2007,0,Greenwich Village Historic District,,1006140014.00000000,40.7367651,-74.0029048
MN,614,16,102,1007700,10077005001,10014,32 BANK STREET,R6,,,,02,,32 BELERIAND LLC,3.0000000,5,1745100.00000,1845,0,0,Greenwich Village Historic District,,1006140016.00000000,40.7367816,-74.0027569
MN,614,17,102,1007700,10077005001,10014,30 BANK STREET,R6,,,,01,,THOMPSON LOUISE S,3.0000000,5,720960.00000,1845,0,0,Greenwich Village Historic District,,1006140017.00000000,40.7367925,-74.0026883
MN,614,23,102,1007700,10077005001,10014,18 BANK STREET,R6,,,,02,,16-18 VILLAGE MANAGEMENT LLC,3.0000000,5,1505250.00000,1845,0,0,Greenwich Village Historic District,,1006140023.00000000,40.7368776,-74.0022805
MN,614,34,102,1007700,10077005001,10014,231 WEST 11 STREET,R6,,,,01,,"231WII, LLC",3.0000000,5,599820.00000,1844,0,0,Greenwich Village Historic District,,1006140034.00000000,40.7365290,-74.0026125
MN,614,35,102,1007700,10077005001,10014,233 WEST 11 STREET,R6,,,,01,,MORRIS ADJMI,3.0000000,5,599820.00000,1844,0,0,Greenwich Village Historic District,,1006140035.00000000,40.7365181,-74.0026847
MN,614,36,102,1007700,10077005001,10014,235 WEST 11 STREET,R6,,,,02,,T 235 W 11TH ST LLC,4.0000000,5,1830600.00000,1844,1988,0,Greenwich Village Historic District,,1006140036.00000000,40.7365098,-74.0027568
MN,614,39,102,1007700,10077005001,10014,241 WEST 11 STREET,R6,,,,01,,"BELUGA PROPERTIES, LLC",3.0000000,5,799860.00000,1851,2014,0,Greenwich Village Historic District,,1006140039.00000000,40.7364824,-74.0029697
MN,614,41,102,1007700,10077005001,10014,245 WEST 11 STREET,R6,,,,01,,"BREMMER, IAN",3.0000000,5,976140.00000,1831,2014,0,Greenwich Village Historic District,,1006140041.00000000,40.7364604,-74.0031141
MN,614,42,102,1007700,10077005001,10014,247 WEST 11 STREET,R6,,,,04,,WEST 11TH STREET LLC,5.0000000,5,1605600.00000,1887,0,0,Greenwich Village Historic District,,1006140042.00000000,40.7364494,-74.0032007
MN,614,44,102,1007700,10077005001,10014,251 WEST 11 STREET,R6,,,,01,,251 W 11TH LLC,3.0000000,5,448200.00000,1827,0,0,Greenwich Village Historic District,,1006140044.00000000,40.7363616,-74.0033667
MN,614,45,102,1007700,10077005001,10014,253 WEST 11 STREET,R6,,,,02,,285 WEST FOURTH LLC,5.0000000,3,2038500.00000,1900,0,0,Greenwich Village Historic District,,1006140045.00000000,40.7363479,-74.0034641
MN,615,2,102,1007700,10077005000,10014,303 WEST 4 STREET,R6,,,,02,,C.P.K. TSE CORPORATION,2.5000000,5,580200.00000,1836,1986,0,Greenwich Village Historic District,,1006150002.00000000,40.7370094,-74.0035796
MN,615,3,102,1007700,10077005000,10014,305 WEST 4 STREET,R6,,,,02,,M CHRISTINE BOYER,3.0000000,5,1211400.00000,1836,1968,0,Greenwich Village Historic District,,1006150003.00000000,40.7370697,-74.0035615
MN,615,5,102,1007700,10077005000,10014,309 WEST 4 STREET,R6,,,,02,,"SUZANNE V. GEORGES,",2.5000000,5,1337400.00000,1836,2003,0,Greenwich Village Historic District,,1006150005.00000000,40.7371823,-74.0035832
MN,615,6,102,1007700,10077005000,10014,311 WEST 4 STREET,R6,,,,01,,311 W4 LLC,3.0000000,5,592380.00000,1836,1998,0,Greenwich Village Historic District,,1006150006.00000000,40.7372372,-74.0035940
MN,615,7,102,1007700,10077005000,10014,313 WEST 4 STREET,R6,,,,01,,RRM WEST 4TH LLC,3.0000000,5,556680.00000,1836,0,0,Greenwich Village Historic District,,1006150007.00000000,40.7372893,-74.0036049
MN,615,8,102,1007700,10077005000,10014,315 WEST 4 STREET,R6,,,,01,,SAKAMOTO RYUICHI,3.0000000,5,623940.00000,1836,1996,0,Greenwich Village Historic District,,1006150008.00000000,40.7373442,-74.0036157
MN,615,9,102,1007700,10077005000,10014,317 WEST 4 STREET,R6,,,,02,,THE JOHN & CYNTHIA BEAL LIMITED,3.0000000,5,851100.00000,1836,0,0,Greenwich Village Historic District,,1006150009.00000000,40.7373991,-74.0036301
MN,615,17,102,1007700,10077005000,10014,260 WEST 12 STREET,R6,,,,01,,"OLIVER PLATT, TTEE OF OLIVER PLATT REVOC ABLE TRUST",3.0000000,5,665640.00000,1857,0,0,Greenwich Village Historic District,,1006150017.00000000,40.7374074,-74.0030203
MN,615,19,102,1007700,10077005000,10014,256 WEST 12 STREET,R6,,,,01,,"DAL PIAZ, CHRISTOPHER",3.0000000,5,1058400.00000,1857,2008,2008,Greenwich Village Historic District,,1006150019.00000000,40.7374101,-74.0028687
MN,615,36,102,1007700,10077005000,10014,87 GREENWICH AVENUE,C1-6,R6,,,04,,1 BANK STREET CORP,6.0000000,3,10404900.00000,1929,0,0,Greenwich Village Historic District,,1006150036.00000000,40.7372784,-74.0019377
MN,615,40,102,1007700,10077005000,10014,9 BANK STREET,R6,,,,02,,"ASYLUM ADVENTURES,",3.0000000,5,1980900.00000,1857,1988,0,Greenwich Village Historic District,,1006150040.00000000,40.7372427,-74.0022336
MN,615,23,102,1007700,10077005000,10014,248 WEST 12 STREET,R6,,,,01,,"FALCONE , MIMI SHERATON",3.0000000,5,654480.00000,1852,0,0,Greenwich Village Historic District,,1006150023.00000000,40.7374431,-74.0025765
MN,615,44,102,1007700,10077005000,10014,17 BANK STREET,R6,,,,01,,17 BANK STREET LLC,5.0000000,5,1137180.00000,1857,1987,2011,Greenwich Village Historic District,,1006150044.00000000,40.7371988,-74.0025548
MN,615,24,102,1007700,10077005000,10014,246 WEST 12 STREET,R6,,,,01,,246 WEST 12 LLC,3.0000000,5,859200.00000,1852,0,0,Greenwich Village Historic District,,1006150024.00000000,40.7374513,-74.0025115
MN,615,26,102,1007700,10077005000,10014,242 WEST 12 STREET,R6,,,,02,,"HERSHKOFF, HELEN M",3.0000000,5,606480.00000,1852,0,0,Greenwich Village Historic District,,1006150026.00000000,40.7374650,-74.0023744
MN,615,45,102,1007700,10077005000,10014,19 BANK STREET,R6,,,,02,,19 BANK STREET LLC,4.0000000,5,1278900.00000,1857,1986,0,Greenwich Village Historic District,,1006150045.00000000,40.7371878,-74.0026306
MN,615,54,102,1007700,10077005000,10014,37 BANK STREET,R6,,,,02,,"ROY M. ZUCKERMAN, TRUSTEE",3.5000000,5,1539450.00000,1837,1989,0,Greenwich Village Historic District,,1006150054.00000000,40.7370944,-74.0033811
MN,615,48,102,1007700,10077005000,10014,25 BANK STREET,R6,,,,01,,"STONE, GILBERT J.",3.0000000,5,790080.00000,1857,0,0,Greenwich Village Historic District,,1006150048.00000000,40.7371521,-74.0028651
MN,615,59,102,1007700,10077002002,10014,329 WEST 4 STREET,C1-6,,,,01,,329 WEST 4 STREET CORP,3.0000000,5,364080.00000,1829,2001,0,Greenwich Village Historic District,,1006150059.00000000,40.7379755,-74.0036879
MN,615,49,102,1007700,10077005000,10014,27 BANK STREET,R6,,,,02,,"OLDFIELD, ANTHONY",3.0000000,5,1567350.00000,1857,0,0,Greenwich Village Historic District,,1006150049.00000000,40.7371521,-74.0029445
MN,615,98,102,1007700,10077002002,10014,277 WEST 12 STREET,R6,,,,01,,"277-279 WEST 12TH STREET, LLC",5.0000000,5,509160.00000,1830,0,0,Greenwich Village Historic District,,1006150098.00000000,40.7376818,-74.0036085
MN,615,81,102,1007700,10077002002,10014,103 GREENWICH AVENUE,C1-6,,,,04,,WILLIAM GOTTLIEB,6.0000000,3,2429100.00000,1907,0,0,Greenwich Village Historic District,,1006150081.00000000,40.7377999,-74.0020785
MN,615,82,102,1007700,10077002002,10014,237 WEST 12 STREET,C1-6,,,,01,,237 WEST 12TH STREET LLC,3.0000000,5,393480.00000,1848,2011,0,Greenwich Village Historic District,,1006150082.00000000,40.7377889,-74.0022192
MN,615,99,102,1007700,10077002002,10014,279 WEST 12 STREET,R6,,,,02,,"277-279 WEST 12TH STREET, LLC",5.0000000,5,1478700.00000,1830,1986,2003,Greenwich Village Historic District,,1006150099.00000000,40.7376818,-74.0036771
MN,615,156,102,1007700,10077005000,10014,39 BANK STREET,R6,,,,01,,CAROL FLATON,4.0000000,5,365820.00000,1839,0,0,Greenwich Village Historic District,,1006150156.00000000,40.7369956,-74.0034425
MN,616,42,102,1007700,10077003003,10014,308 WEST 13 STREET,C1-6,,,,04,,351 WEST 4TH STREET,5.0000000,3,531720.00000,1868,1988,2003,Greenwich Village Historic District,,1006160042.00000000,40.7392134,-74.0037277
MN,616,44,102,1007700,10077003003,10014,302 WEST 13 STREET,C1-6,,,,02,,JUDITH WHITNEY GODWIN,3.0000000,3,991140.00000,1892,0,0,Greenwich Village Historic District,,1006160044.00000000,40.7391036,-74.0035039
MN,616,51,102,1007700,10077003003,10014,1 HORATIO STREET,C1-6,,,,02,,HORATIO STREET LLC,4.0000000,5,1170900.00000,1848,0,0,Greenwich Village Historic District,,1006160051.00000000,40.7389060,-74.0036194
MN,616,52,102,1007700,10077003003,10014,3 HORATIO STREET,C1-6,,,,04,,KWAI AND WONG INC,4.0000000,5,1305450.00000,1848,0,0,Greenwich Village Historic District,,1006160052.00000000,40.7389087,-74.0036807
MN,616,53,102,1007700,10077003003,10014,5 HORATIO STREET,C1-6,,,,02,,KWAI AND WONG INC,4.0000000,3,1898100.00000,1848,0,0,Greenwich Village Historic District,,1006160053.00000000,40.7389087,-74.0037457
MN,616,106,102,1007700,10077002001,10014,50 8 AVENUE,C1-6,,,,04,,YOUCHUNG CORPORATION,3.0000000,5,425820.00000,1845,0,0,Greenwich Village Historic District,,1006160106.00000000,40.7384229,-74.0035219
MN,619,14,102,1007300,10073002000,10014,242 WEST 10 STREET,R6,,,,02,,CARMINE LIMITED,6.0000000,5,996300.00000,1860,0,0,Greenwich Village Historic District,,1006190014.00000000,40.7336360,-74.0056902
MN,619,23,102,1007300,10073002000,10014,224 WEST 10 STREET,R6,C1-6,,,01,,THE COOL TRUST,3.0000000,5,710760.00000,1848,1983,2011,Greenwich Village Historic District,,1006190023.00000000,40.7337485,-74.0049686
MN,619,41,102,1007300,10073002000,10014,111 CHRISTOPHER STREET,R6,,,,04,,D & B CHRISTOPHER STCRP,5.0000000,5,1676700.00000,1873,1986,0,Greenwich Village Historic District,,1006190041.00000000,40.7334384,-74.0052572
MN,619,42,102,1007300,10073002000,10014,113 CHRISTOPHER STREET,R6,,,,02,,113 CHRISTOPHER ST LLC,5.0000000,5,2034900.00000,1873,0,0,Greenwich Village Historic District,,1006190042.00000000,40.7334191,-74.0053511
MN,619,45,102,1007300,10073002000,10014,119 CHRISTOPHER STREET,R6,,,,04,,119 CHRISTOPHER LLC,6.0000000,5,1791450.00000,1899,1986,0,Greenwich Village Historic District,,1006190045.00000000,40.7333780,-74.0056145
MN,619,55,102,1007300,10073004001,10014,347 BLEECKER STREET,C1-6,,,,04,,347 BLEECKER STREET ASSOCIATES LLC,4.0000000,3,2490750.00000,1883,1986,0,Greenwich Village Historic District,,1006190055.00000000,40.7339434,-74.0043480
MN,619,56,102,1007300,10073004001,10014,208 WEST 10 STREET,C1-6,,,,04,,QUARTZ WEST 10 LLC,6.0000000,5,3567600.00000,1911,1987,0,Greenwich Village Historic District,,1006190056.00000000,40.7338721,-74.0041495
MN,619,62,102,1007300,10073004001,10014,200 WEST 10 STREET,R6,,,,02,,"SPENCE, WILLIAM CHENAULT JR",3.0000000,5,1792350.00000,1839,1986,0,Greenwich Village Historic District,,1006190062.00000000,40.7339242,-74.0038140
MN,619,78,102,1007300,10073004001,10014,81 CHRISTOPHER STREET,R6,,,,08,X,ST JOHNS GERMAN CHUR,3.0000000,5,1408950.00000,1822,0,0,Greenwich Village Historic District,,1006190078.00000000,40.7336964,-74.0036408
MN,620,1,102,1007300,10073001002,10014,520 HUDSON STREET,C1-6,,,,03,,247 WEST REALTY CORP,5.0000000,3,3550050.00000,1880,1986,0,Greenwich Village Historic District,,1006200001.00000000,40.7339351,-74.0059573
MN,620,41,102,1007300,10073004000,10014,213 WEST 10 STREET,C1-6,,,,04,,DKF2 215 WEST 10TH LLC,6.0000000,3,5972850.00000,1903,1976,1987,Greenwich Village Historic District,,1006200041.00000000,40.7342124,-74.0044490
MN,620,44,102,1007300,10073004000,10014,355 BLEECKER STREET,C1-6,,,,04,,ANTOINETTE TANNEHILL,3.0000000,5,1840950.00000,1830,0,0,Greenwich Village Historic District,,1006200044.00000000,40.7343689,-74.0043985
MN,620,51,102,1007300,10073004000,10014,92 CHARLES STREET,C1-6,,,,01,,92 CHARLES LLC,4.0000000,5,740460.00000,1836,2008,0,Greenwich Village Historic District,,1006200051.00000000,40.7345336,-74.0043228
MN,620,53,102,1007300,10073004000,10014,88 CHARLES STREET,R6,,,,02,,84-88 CHARLES ST OWNERS CORP,5.0000000,5,1157850.00000,1887,1960,0,Greenwich Village Historic District,,1006200053.00000000,40.7345391,-74.0041640
MN,620,62,102,1007300,10073004000,10014,70 CHARLES STREET,R6,,,,01,,"SHERIF, TAREK",3.0000000,5,585480.00000,1861,2013,0,Greenwich Village Historic District,,1006200062.00000000,40.7347230,-74.0034387
MN,620,63,102,1007300,10073004000,10014,68 CHARLES STREET,R6,,,,01,,BENJAMIN J. JENKINS,3.0000000,5,545940.00000,1861,2010,0,Greenwich Village Historic District,,1006200063.00000000,40.7347340,-74.0033702
MN,620,65,102,1007300,10073004000,10014,64 CHARLES STREET,R6,,,,04,,BORDER 64 LLC,4.0000000,3,1562400.00000,1861,1985,0,Greenwich Village Historic District,,1006200065.00000000,40.7347559,-74.0032258
MN,620,72,102,1007300,10073004000,10014,191 WEST 10 STREET,R6,,,,02,,191 W 10 STREET LLC,3.0000000,5,2011500.00000,1841,1989,0,Greenwich Village Historic District,,1006200072.00000000,40.7343799,-74.0034459
MN,621,10,102,1007300,10073001001,10014,104 PERRY STREET,C1-6,,,,02,,PERRY 104 LLC,5.0000000,5,1258200.00000,1886,1973,1984,Greenwich Village Historic District,,1006210010.00000000,40.7350111,-74.0055532
MN,621,13,102,1007300,10073001001,10014,96 PERRY STREET,C1-6,,,,03,,96 PERRY ST CORP,6.0000000,5,2516400.00000,1900,1985,0,Greenwich Village Historic District,,1006210013.00000000,40.7350468,-74.0052898
MN,621,18,102,1007300,10073001001,10014,380 BLEECKER STREET,C1-6,,,,04,,"MARQUES, LUIS",4.0000000,5,2309850.00000,1853,0,0,Greenwich Village Historic District,,1006210018.00000000,40.7350660,-74.0050878
MN,621,29,102,1007300,10073001001,10014,101 CHARLES STREET,C1-6,,,,04,,101-103-105 CHARLES LLC,5.0000000,5,1693350.00000,1894,1986,0,Greenwich Village Historic District,,1006210029.00000000,40.7347449,-74.0054955
MN,621,19,102,1007300,10073001001,10014,378 BLEECKER STREET,C1-6,,,,02,,HARRIET LIPSITZ,4.0000000,5,1722150.00000,1854,2005,0,Greenwich Village Historic District,,1006210019.00000000,40.7350056,-74.0050697
MN,621,43,102,1007300,10073005001,10014,84 PERRY STREET,C1-6,R6,,,01,,VILLAGE 84 LLC,3.0000000,5,916500.00000,1868,0,0,Greenwich Village Historic District,,1006210043.00000000,40.7351731,-74.0044708
MN,621,20,102,1007300,10073001001,10014,376 BLEECKER STREET,C1-6,,,,04,,376 BLEECKER ASSOCIATES LLC,4.0000000,5,1322550.00000,1853,2005,0,Greenwich Village Historic District,,1006210020.00000000,40.7349480,-74.0050553
MN,621,52,102,1007300,10073005001,10014,66 PERRY STREET,R6,,,,02,,BARBARA HEYMAN LORBER 2019 REVOCABLE TRU ST,3.0000000,5,816600.00000,1866,0,0,Greenwich Village Historic District,,1006210052.00000000,40.7352692,-74.0038285
MN,621,53,102,1007300,10073005001,10014,64 PERRY STREET,R6,,,,01,,"64 PERRY STREET, LLC",3.0000000,5,955860.00000,1866,2013,0,Greenwich Village Historic District,,1006210053.00000000,40.7352774,-74.0037563
MN,621,54,102,1007300,10073005001,10014,62 PERRY STREET,R6,,,,02,,SARAH BRECHT,3.0000000,5,765240.00000,1866,0,0,Greenwich Village Historic District,,1006210054.00000000,40.7352884,-74.0036877
MN,621,62,102,1007300,10073005001,10014,53 CHARLES STREET,R6,,,,08,X,TR CONG DARECH AMUNO,2.0000000,5,486000.00000,1917,0,0,Greenwich Village Historic District,,1006210062.00000000,40.7350386,-74.0033882
MN,621,63,102,1007300,10073005001,10014,55 CHARLES STREET,R6,,,,01,,WARDLE JEAN F,4.0000000,5,1199700.00000,1867,2008,0,Greenwich Village Historic District,,1006210063.00000000,40.7350469,-74.0034712
MN,621,65,102,1007300,10073005001,10014,59 CHARLES STREET,R6,,,,01,,"PAUL,ANDREW,S",3.0000000,5,815340.00000,1866,0,0,Greenwich Village Historic District,,1006210065.00000000,40.7350276,-74.0036120
MN,621,66,102,1007300,10073005001,10014,61 CHARLES STREET,R6,,,,02,,GENEVIEVE A SMITH 2010 IRREVOCABLE TRUST,3.0000000,5,988740.00000,1866,1959,2005,Greenwich Village Historic District,,1006210066.00000000,40.7350167,-74.0036805
MN,621,67,102,1007300,10073005001,10014,63 CHARLES STREET,R6,,,,01,X,NEW YORK UNIVERSITYSCHOOL OF LAW FOUNDAT ION,3.0000000,5,780780.00000,1866,1999,0,Greenwich Village Historic District,,1006210067.00000000,40.7350057,-74.0037527
MN,621,68,102,1007300,10073005001,10014,65 CHARLES STREET,R6,,,,01,X,LAW CENTER FOUNDATION,3.0000000,5,1186860.00000,1866,1989,1994,Greenwich Village Historic District,,1006210068.00000000,40.7349947,-74.0038248
MN,621,71,102,1007300,10073005001,10014,71 CHARLES STREET,R6,,,,02,,JOAN S MCALLISTER,3.0000000,5,1984500.00000,1866,1984,0,Greenwich Village Historic District,,1006210071.00000000,40.7349645,-74.0040377
MN,621,73,102,1007300,10073005001,10014,75 CHARLES STREET,R6,,,,02,,SEVENTY-FIVE CHARLES LLC,3.0000000,5,1966950.00000,1866,1987,0,Greenwich Village Historic District,,1006210073.00000000,40.7349425,-74.0041821
MN,621,74,102,1007300,10073005001,10014,77 CHARLES STREET,R6,,,,01,,LE PETIT FRANCOZUELAN LLC,3.0000000,5,572340.00000,1866,2017,0,Greenwich Village Historic District,,1006210074.00000000,40.7349343,-74.0042506
MN,622,12,102,1007300,10073001000,10014,296 WEST 11 STREET,C1-6,,,,02,,VILLAGE DEVELOPMENTASSC,5.0000000,5,1752300.00000,1899,0,0,Greenwich Village Historic District,,1006220012.00000000,40.7356863,-74.0055497
MN,622,13,102,1007300,10073001000,10014,294 WEST 11 STREET,C1-6,,,,02,,"CHIMERA, CHRISTOPHER",3.0000000,5,1068960.00000,1842,1987,0,Greenwich Village Historic District,,1006220013.00000000,40.7357000,-74.0054559
MN,622,19,102,1007300,10073001000,10014,394 BLEECKER STREET,C1-6,,,,04,,376 BLEECKER STREET LLC,3.0000000,5,380400.00000,1853,0,0,Greenwich Village Historic District,,1006220019.00000000,40.7355738,-74.0051925
MN,622,21,102,1007300,10073001000,10014,390 BLEECKER STREET,C1-6,,,,04,,HOWARD AARON,3.0000000,5,382740.00000,1853,2005,0,Greenwich Village Historic District,,1006220021.00000000,40.7354750,-74.0051636
MN,622,31,102,1007300,10073005000,10014,393 BLEECKER STREET,C1-6,,,,01,,DENISE RENEE SOBEL AS TRUSTEE,4.0000000,5,753600.00000,1853,2013,0,Greenwich Village Historic District,,1006220031.00000000,40.7356836,-74.0048208
MN,622,22,102,1007300,10073001000,10014,388 BLEECKER STREET,C1-6,,,,04,,"PINELAND CO., LTD.",4.0000000,5,1840500.00000,1853,0,0,Greenwich Village Historic District,,1006220022.00000000,40.7354256,-74.0051491
MN,622,30,102,1007300,10073005000,10014,391 BLEECKER STREET,C1-6,,,,01,,FRANCIS J MENTON,4.0000000,5,633360.00000,1852,0,0,Greenwich Village Historic District,,1006220030.00000000,40.7356342,-74.0048064
MN,622,66,102,1007300,10073005000,10014,79 PERRY STREET,R6,,,,02,,PERRY ELEVEN APARTMENT CORP,5.0000000,5,1258200.00000,1895,1972,0,Greenwich Village Historic District,,1006220066.00000000,40.7355711,-74.0044960
MN,602,7502,102,1006900,10069001004,10014,90 MORTON STREET,M1-5/R7X,,,,03,,627 GREENWICH OWNER LLC,12.0000000,0,10179903.00000,1911,2015,2015,,,1006027502.00000000,40.7308142,-74.0077611
MN,592,40,102,1007100,10071005002,10014,80 GROVE STREET,R6,,,,04,,"TEN SHERIDAN ASSOCIATES, LLC",14.0000000,3,8563050.00000,1929,1988,0,Greenwich Village Historic District,,1005920040.00000000,40.7333177,-74.0022299
MN,622,69,102,1007300,10073005000,10014,85 PERRY STREET,C1-6,,,,01,,DVULT LLC,3.0000000,5,458460.00000,1818,2013,0,Greenwich Village Historic District,,1006220069.00000000,40.7354722,-74.0047270
MN,622,70,102,1007300,10073005000,10014,87 PERRY STREET,C1-6,,,,04,,"VALLETTA (TRUSTEE), AMBER E",3.0000000,3,425400.00000,1818,0,0,Greenwich Village Historic District,,1006220070.00000000,40.7354228,-74.0048208
MN,622,7502,102,1007300,10073005000,10014,387 BLEECKER STREET,C1-6,,,,04,,UNAVAILABLE OWNER,3.0000000,0,198600.00000,1818,2005,0,Greenwich Village Historic District,,1006227502.00000000,40.7354750,-74.0048388
MN,623,31,102,1007700,10077004002,10014,66 BANK STREET,R6,,,,01,,"WHITE, RAYE G. - TRUSTEE",3.0000000,5,866820.00000,1841,0,0,Greenwich Village Historic District,,1006230031.00000000,40.7365784,-74.0043265
MN,623,22,102,1007700,10077004002,10014,415 BLEECKER STREET,C1-6,,,,04,,WILLIAM GOTTLIEB,4.0000000,5,1653750.00000,1860,0,0,Greenwich Village Historic District,,1006230022.00000000,40.7364247,-74.0050771
MN,623,34,102,1007700,10077004002,10014,60 BANK STREET,R6,,,,02,,SUSAN MASSAD LLC,3.0000000,5,2126250.00000,1854,0,0,Greenwich Village Historic District,,1006230034.00000000,40.7366196,-74.0040775
MN,623,27,102,1007700,10077004002,10014,74 BANK STREET,R6,,,,01,,"OKELLY,LISA,W",2.5000000,5,785100.00000,1842,2009,0,Greenwich Village Historic District,,1006230027.00000000,40.7365262,-74.0046837
MN,623,28,102,1007700,10077004002,10014,72 BANK STREET,R6,,,,01,,NANCY B. HOFFMAN AS TRUSTEE,3.0000000,5,1091400.00000,1839,0,0,Greenwich Village Historic District,,1006230028.00000000,40.7365235,-74.0045899
MN,623,36,102,1007700,10077004002,10014,56 BANK STREET,R6,,,,01,,PLUNKY LLC,3.0000000,5,449160.00000,1833,2005,0,Greenwich Village Historic District,,1006230036.00000000,40.7366882,-74.0039440
MN,623,29,102,1007700,10077004002,10014,70 BANK STREET,R6,,,,01,,CASAVOLPE LLC,4.0000000,5,1470960.00000,1842,2015,0,Greenwich Village Historic District,,1006230029.00000000,40.7365345,-74.0045033
MN,623,40,102,1007700,10077004002,10014,292 WEST 4 STREET,R6,,,,01,,AR VENTURES REAL ESTATE II LLC,3.0000000,5,847620.00000,1860,2013,0,Greenwich Village Historic District,,1006230040.00000000,40.7365565,-74.0038285
MN,623,41,102,1007700,10077004002,10014,290 WEST 4 STREET,R6,,,,01,,"SEYMOUR, WHITNEY NORTH JR",3.0000000,5,528000.00000,1860,0,0,Greenwich Village Historic District,,1006230041.00000000,40.7365043,-74.0038141
MN,623,42,102,1007700,10077004002,10014,288 WEST 4 STREET,R6,,,,01,,"JACKSON, MICHAEL",3.0000000,5,744840.00000,1860,2009,0,Greenwich Village Historic District,,1006230042.00000000,40.7364494,-74.0037997
MN,623,43,102,1007700,10077004002,10014,255 WEST 11 STREET,R6,,,,01,,255W11ST LLC,3.0000000,3,703440.00000,1861,0,0,Greenwich Village Historic District,,1006230043.00000000,40.7363369,-74.0036878
MN,623,44,102,1007700,10077004002,10014,257 WEST 11 STREET,R6,,,,02,,"KAUFFMAN, L. RICHARD",3.0000000,5,761760.00000,1861,0,0,Greenwich Village Historic District,,1006230044.00000000,40.7363286,-74.0037636
MN,623,45,102,1007700,10077004002,10014,259 WEST 11 STREET,R6,,,,01,,"WASSERMAN, BARBARA",3.0000000,5,719700.00000,1861,0,0,Greenwich Village Historic District,,1006230045.00000000,40.7363177,-74.0038394
MN,623,47,102,1007700,10077004002,10014,265 WEST 11 STREET,R6,,,,02,,PACKER BROWN LLC,4.0000000,5,1527300.00000,1868,0,0,Greenwich Village Historic District,,1006230047.00000000,40.7363451,-74.0040919
MN,624,17,102,1007900,10079004005,10014,605 HUDSON STREET,C1-6,,,,04,,605 HUDSON LTD,5.0000000,5,2932200.00000,1887,1987,0,Greenwich Village Historic District,,1006240017.00000000,40.7372700,-74.0060153
MN,624,19,102,1007900,10079004005,10014,601 HUDSON STREET,C1-6,,,,02,,18 ABINGDON SQUARE LLC,5.0000000,5,2173950.00000,1885,0,0,Greenwich Village Historic District,,1006240019.00000000,40.7371739,-74.0060225
MN,624,23,102,1007900,10079004005,10014,10 BETHUNE STREET,C1-6,,,,02,,8-10 BETHUNE/791 GREENWICH STREET,5.0000000,0,1111050.00000,1896,0,0,Greenwich Village Historic District,,1006240023.00000000,40.7371108,-74.0063725
MN,624,41,102,1007700,10077004001,10014,300 WEST 12 STREET,C1-6,R6,,,03,,12TH REALTY ASSOCIATES,6.0000000,5,4314600.00000,1925,1987,0,Greenwich Village Historic District,,1006240041.00000000,40.7372673,-74.0044204
MN,624,44,102,1007700,10077004001,10014,290 WEST 12 STREET,R6,C1-6,,,03,,290 W12 LLC,6.0000000,5,3714750.00000,1903,1988,0,Greenwich Village Historic District,,1006240044.00000000,40.7373085,-74.0041967
MN,624,48,102,1007700,10077004001,10014,284 WEST 12 STREET,R6,,,,04,,DUNDALK MANAGEMENT INC.,4.0000000,3,1317150.00000,1845,1968,0,Greenwich Village Historic District,,1006240048.00000000,40.7373936,-74.0039765
MN,624,49,102,1007700,10077004001,10014,310 WEST 4 STREET,R6,,,,04,,"310 WEST FOURTH ASSOCIATES, LLC",5.0000000,5,1789650.00000,1900,1984,0,Greenwich Village Historic District,,1006240049.00000000,40.7372646,-74.0039874
MN,624,53,102,1007700,10077004001,10014,51 BANK STREET,R6,,,,04,,51-53 LLC,6.0000000,3,2947500.00000,1898,1989,0,Greenwich Village Historic District,,1006240053.00000000,40.7369846,-74.0039043
MN,624,7501,102,1007700,10077004001,10014,59 BANK STREET,R6,,,,02,,NAME NOT ON FILE,6.0000000,5,4448248.00000,1905,0,0,Greenwich Village Historic District,,1006247501.00000000,40.7369956,-74.0041678
MN,625,9,102,1007900,10079004004,10014,621 HUDSON STREET,C1-6,,,,04,,"58 JANE STREET ASSOCIATES, LLC",4.0000000,3,1318050.00000,1849,1987,0,Greenwich Village Historic District,,1006250009.00000000,40.7380523,-74.0058602
MN,625,10,102,1007900,10079004004,10014,619 HUDSON STREET,C1-6,,,,04,,INDALO 619 LLC,4.0000000,5,429960.00000,1848,1985,0,Greenwich Village Historic District,,1006250010.00000000,40.7380029,-74.0058747
MN,625,11,102,1007900,10079004004,10014,617 HUDSON STREET,C1-6,,,,04,,GP LEE LLC,4.0000000,5,1337850.00000,1848,1975,0,Greenwich Village Historic District,,1006250011.00000000,40.7379507,-74.0058819
MN,625,16,102,1007900,10079004004,10014,319 WEST 12 STREET,C1-6,,,,01,,"WOODS, MARY",3.0000000,5,644580.00000,1841,0,0,Greenwich Village Historic District,,1006250016.00000000,40.7377119,-74.0059684
MN,625,17,102,1007900,10079004004,10014,321 WEST 12 STREET,C1-6,,,,02,,"BRANDSTON, SARA S",3.0000000,5,491340.00000,1841,0,0,Greenwich Village Historic District,,1006250017.00000000,40.7377174,-74.0060478
MN,625,18,102,1007900,10079004004,10014,323 WEST 12 STREET,C1-6,,,,01,,MAURICE REGAN 2012 FAMILY GST TRUST,3.0000000,5,438600.00000,1841,2009,0,Greenwich Village Historic District,,1006250018.00000000,40.7377064,-74.0061236
MN,625,19,102,1007900,10079004004,10014,325 WEST 12 STREET,C1-6,R6,,,01,,JOSEPH N JAFFONI,3.0000000,5,408660.00000,1841,2005,0,Greenwich Village Historic District,,1006250019.00000000,40.7376899,-74.0062066
MN,625,26,102,1007700,10077003005,10014,622 HUDSON STREET,C1-6,,,,03,,TABLE BAY CORP,4.0000000,3,1880100.00000,1852,1985,0,Greenwich Village Historic District,,1006250026.00000000,40.7379590,-74.0053550
MN,625,27,102,1007700,10077003005,10014,54 JANE STREET,C1-6,,,,02,,54 JANE STREET LLC,3.0000000,5,1427850.00000,1851,1987,0,Greenwich Village Historic District,,1006250027.00000000,40.7379617,-74.0051999
MN,625,31,102,1007700,10077003005,10014,46 JANE STREET,C1-6,,,,02,,"ZAKUTANSKY, BRIAN",3.0000000,5,1599300.00000,1846,1982,0,Greenwich Village Historic District,,1006250031.00000000,40.7379727,-74.0048751
MN,625,39,102,1007700,10077003005,10014,21 8 AVENUE,C1-6,,,,04,,"PB 21 EIGHTH AVE, LP",3.0000000,5,329880.00000,1845,2000,2013,Greenwich Village Historic District,,1006250039.00000000,40.7378876,-74.0047163
MN,626,24,102,1007700,10077003004,10014,630 HUDSON STREET,C1-6,,,,04,,630 HUDSON LLC,4.0000000,5,1822050.00000,1847,1986,0,Greenwich Village Historic District,,1006260024.00000000,40.7383762,-74.0052540
MN,626,27,102,1007700,10077003004,10014,50 HORATIO STREET,C1-6,,,,04,,50 HORATIO LLC,6.0000000,3,2903400.00000,1907,1985,0,Greenwich Village Historic District,,1006260027.00000000,40.7386177,-74.0052721
MN,626,29,102,1007700,10077003004,10014,48 HORATIO STREET,C1-6,,,,01,,"SEIGEL, JERROLD",3.0000000,5,390660.00000,1856,0,0,Greenwich Village Historic District,,1006260029.00000000,40.7386122,-74.0051386
MN,625,58,102,1007700,10077004000,10014,38 8 AVENUE,C1-6,,,,04,,38 EIGHTH AV RLTY CP,4.0000000,4,1742850.00000,1842,1987,0,Greenwich Village Historic District,,1006250058.00000000,40.7379727,-74.0040307
MN,625,59,102,1007700,10077004000,10014,40 8 AVENUE,C1-6,,,,04,,38 EIGHTH AVENUE REALTY,3.0000000,5,327300.00000,1842,0,0,Greenwich Village Historic District,,1006250059.00000000,40.7380331,-74.0040018
MN,625,7501,102,1007700,10077003005,10014,299 WEST 12 STREET,C1-6,,,,04,,299 WEST 12TH ST CONDOMINIUM,17.0000000,5,16968621.00000,1931,1986,0,Greenwich Village Historic District,,1006257501.00000000,40.7377366,-74.0052576
MN,626,50,102,1007700,10077003004,10014,41 JANE STREET,C1-6,R6,,,02,,41 JANE ST OWNERS INC,5.0000000,5,1431000.00000,1888,0,0,Greenwich Village Historic District,,1006260050.00000000,40.7383213,-74.0046261
MN,626,53,102,1007700,10077003004,10014,49 JANE STREET,R6,,,,02,,LEVINSOHN CHARLES,4.0000000,5,2961900.00000,1839,1964,0,Greenwich Village Historic District,,1006260053.00000000,40.7383213,-74.0049220
MN,627,10,102,1007900,10079004002,10014,647 HUDSON STREET,M1-5,,,,04,,"CALLEN, ROBINSON TR",4.0000000,5,1340550.00000,1840,0,0,Gansevoort Market Historic District,,1006270010.00000000,40.7392188,-74.0056907
MN,627,7502,102,1007900,10079004002,10014,57 HORATIO STREET,R6,,,,02,,UNAVAILABLE OWNER,3.0000000,0,399902.00000,1848,2002,0,Greenwich Village Historic District,,1006277502.00000000,40.7388921,-74.0062608
MN,626,54,102,1007700,10077003004,10014,51 JANE STREET,R6,,,,02,,51 JANE ST OWNERS COR,5.0000000,5,1197900.00000,1870,0,0,Greenwich Village Historic District,,1006260054.00000000,40.7383240,-74.0050122
MN,629,40,102,1007700,10077003000,10014,69 8 AVENUE,C1-6,,,,02,,67 8 AVE OWNERS INC,5.0000000,5,1674900.00000,1884,0,0,Greenwich Village Historic District,,1006290040.00000000,40.7394220,-74.0031647
MN,629,42,102,1007700,10077003000,10014,65 8 AVENUE,C1-6,,,,04,,"65 EIGHTH AVENUE,",4.0000000,3,1459350.00000,1852,1971,0,Greenwich Village Historic District,,1006290042.00000000,40.7392710,-74.0032116
MN,629,41,102,1007700,10077003000,10014,67 8 AVENUE,C1-6,,,,02,,67 8 AVE OWNERS INC,5.0000000,5,1624500.00000,1884,0,0,Greenwich Village Historic District,,1006290041.00000000,40.7393589,-74.0032116
MN,630,48,102,1007500,10075003004,10014,501 HUDSON STREET,C1-6,,,,04,,501 HUDSON CO. LLC,2.0000000,3,1777050.00000,1953,1988,0,Greenwich Village Historic District,,1006300048.00000000,40.7331364,-74.0067005
MN,630,2,102,1007500,10075001006,10014,651 WASHINGTON STREET,R6,,,,01,,"MICHAEL K. BELFORD, SUCCESSOR TRUSTEE",3.5000000,5,523680.00000,1829,0,0,Greenwich Village Historic District Extension,,1006300002.00000000,40.7329030,-74.0083747
MN,630,130,102,1007500,10075003004,10014,681 GREENWICH STREET,R6,,,,02,,"STAIRWAY APTS, LLC",4.0000000,5,1628550.00000,1845,1982,0,Greenwich Village Historic District,,1006300130.00000000,40.7330897,-74.0072454
MN,631,34,102,1007500,10075003003,10014,705 GREENWICH STREET,R6,,,,04,,705 GREENWICH PROPER,3.0000000,5,2072250.00000,1828,0,0,Greenwich Village Historic District,,1006310034.00000000,40.7340009,-74.0069532
MN,631,37,102,1007500,10075003003,10014,711 GREENWICH STREET,R6,,,,05,,STEPHAN WEISS STUDISLTD,2.0000000,3,1546200.00000,1945,1982,0,Greenwich Village Historic District,,1006310037.00000000,40.7341492,-74.0069135
MN,631,41,102,1007500,10075003003,10014,529 HUDSON STREET,C1-6,,,,04,,GBR RRJ LIMITED LIABILITY COMPANY,3.0000000,5,981900.00000,1827,1986,0,Greenwich Village Historic District,,1006310041.00000000,40.7341959,-74.0065202
MN,632,4,102,1007500,10075001000,10014,691 WASHINGTON STREET,C1-6A,,,,01,,MARC SHERMAN 2011 TRUST,3.0000000,5,395460.00000,1981,0,0,Greenwich Village Historic District Extension,,1006320004.00000000,40.7344016,-74.0081620
MN,632,39,102,1007500,10075003002,10014,719 GREENWICH STREET,R6,,,,03,,GREENWICH GREEN COOPERATIVE IN,6.0000000,5,3592800.00000,1909,1976,0,Greenwich Village Historic District,,1006320039.00000000,40.7345938,-74.0068269
MN,632,55,102,1007500,10075003002,10014,535 HUDSON STREET,C1-6,,,,04,,535 HUDSON REALTY LLC,5.0000000,3,5145750.00000,1953,1983,2015,Greenwich Village Historic District,,1006320055.00000000,40.7346240,-74.0064084
MN,632,56,102,1007500,10075003002,10014,115 CHARLES STREET,C1-6,,,,02,,115 CHARLES ST RLTY INC,5.0000000,5,1316700.00000,1893,1984,0,Greenwich Village Historic District,,1006320056.00000000,40.7345938,-74.0065527
MN,633,17,102,1007500,10075002003,10014,320 WEST 11 STREET,R6,,,,01,,S A WRIGHT,3.0000000,5,381000.00000,1843,0,0,Greenwich Village Historic District,,1006330017.00000000,40.7355188,-74.0071410
MN,633,18,102,1007500,10075002003,10014,318 WEST 11 STREET,R6,,,,01,,"STROLIGO, CHRIS M",3.0000000,5,413160.00000,1843,0,0,Greenwich Village Historic District,,1006330018.00000000,40.7355188,-74.0070616
MN,633,41,102,1007500,10075003001,10014,739 GREENWICH STREET,C1-6,,,,02,,"LEROY, YANN",3.0000000,5,705600.00000,1843,0,0,Greenwich Village Historic District,,1006330041.00000000,40.7352992,-74.0066574
MN,633,43,102,1007500,10075003001,10014,743 GREENWICH STREET,C1-6,,,,07,,"EHA ENTERPRISES, LLC",1.0000000,5,129150.00000,1930,0,0,Greenwich Village Historic District,,1006330043.00000000,40.7354063,-74.0066177
MN,633,34,102,1007500,10075002003,10014,143 PERRY STREET,C1-6A,,,,04,,143 PERRY CORP,4.0000000,5,1337400.00000,1859,0,0,Greenwich Village Historic District,,1006330034.00000000,40.7349780,-74.0080430
MN,633,44,102,1007500,10075003001,10014,745 GREENWICH STREET,C1-6,,,,01,,BARBARA COHN SCHLACHET REVOCABLE TRUST,3.0000000,5,400980.00000,1835,0,0,Greenwich Village Historic District,,1006330044.00000000,40.7354639,-74.0066502
MN,633,40,102,1007500,10075003001,10014,737 GREENWICH STREET,C1-6,,,,02,,KATHERINE DOBKIN LIVING TRUST,2.5000000,5,663300.00000,1838,0,0,Greenwich Village Historic District,,1006330040.00000000,40.7352526,-74.0066899
MN,634,9,102,1007500,10075002000,10014,132 BANK STREET,C1-6A,,,,01,,"SHIPMAN, SUSANNAH G",3.5000000,5,450960.00000,1833,2008,0,Greenwich Village Historic District,,1006340009.00000000,40.7360951,-74.0079818
MN,634,12,102,1007500,10075002000,10014,126 BANK STREET,R6,,,,01,,"GORDON, SARAH A",3.0000000,5,401400.00000,1837,0,0,Greenwich Village Historic District,,1006340012.00000000,40.7360704,-74.0077725
MN,634,35,102,1007500,10075002000,10014,321 WEST 11 STREET,R6,,,,04,,321 W 11 ST. LLC,5.0000000,5,1483650.00000,1839,1988,0,Greenwich Village Historic District,,1006340035.00000000,40.7358674,-74.0072817
MN,634,40,102,1007500,10075002000,10014,331 WEST 11 STREET,R6,,,,02,,B K VADEHRA,4.0000000,5,1488150.00000,1839,0,0,Greenwich Village Historic District,,1006340040.00000000,40.7358124,-74.0076787
MN,634,47,102,1007500,10075002000,10014,337 WEST 11 STREET,C1-6A,,,,03,,RKS 341 WEST 11TH LLC,6.0000000,3,6205950.00000,1905,1982,0,Greenwich Village Historic District,,1006340047.00000000,40.7357136,-74.0080611
MN,634,58,102,1007500,10075003000,10014,94 BANK STREET,C1-6,,,,01,,"CHILDRESS, STEPHEN WILLIAM",3.0000000,5,411720.00000,1839,0,0,Greenwich Village Historic District,,1006340058.00000000,40.7363203,-74.0063797
MN,634,59,102,1007500,10075003000,10014,92 BANK STREET,C1-6,,,,01,,STARCIRCLE LLC,2.0000000,5,472380.00000,1839,0,0,Greenwich Village Historic District,,1006340059.00000000,40.7363368,-74.0063256
MN,634,60,102,1007500,10075003000,10014,581 HUDSON STREET,C1-6,,,,03,,"581 HUDSON STREET, LLC",5.0000000,3,2314350.00000,1873,0,0,Greenwich Village Historic District,,1006340060.00000000,40.7363615,-74.0061668
MN,634,62,102,1007500,10075003000,10014,579 HUDSON STREET,C1-6,,,,04,,579 HUDSON STREET LLC,3.0000000,5,867600.00000,1870,1961,0,Greenwich Village Historic District,,1006340062.00000000,40.7362462,-74.0061848
MN,634,65,102,1007500,10075003000,10014,571 HUDSON STREET,C1-6,,,,03,,571 HUDSON ST APT CORP,5.0000000,5,2886750.00000,1892,1978,0,Greenwich Village Historic District,,1006340065.00000000,40.7360156,-74.0062245
MN,635,3,102,1007900,10079003004,10014,737 WASHINGTON STREET,C1-6A,,,,01,,"MERRIMAN, DWIGHT A.",3.0000000,5,510720.00000,1845,0,0,Greenwich Village Historic District,,1006350003.00000000,40.7364245,-74.0080432
MN,635,19,102,1007900,10079003004,10014,29 BETHUNE STREET,R6,,,,02,,BREZY INVESTMENT CORP,4.0000000,5,530400.00000,1836,0,0,Greenwich Village Historic District,,1006350019.00000000,40.7367786,-74.0074298
MN,635,20,102,1007900,10079003004,10014,27 BETHUNE STREET,R6,,,,02,,27 BETHUNE LLC,3.0000000,5,553740.00000,1836,0,0,Greenwich Village Historic District,,1006350020.00000000,40.7367841,-74.0073504
MN,640,64,102,1007900,10079003003,10014,20 BETHUNE STREET,R6,,,,02,,20 BETHUNE OWNERS CORP,5.0000000,5,1392300.00000,1910,1983,0,Greenwich Village Historic District,,1006400064.00000000,40.7371355,-74.0070437
MN,640,67,102,1007900,10079003003,10014,26 BETHUNE STREET,R6,,,,02,,"26 BETHUNE STREET, LLC",4.0000000,5,1088550.00000,1845,0,0,Greenwich Village Historic District,,1006400067.00000000,40.7371382,-74.0072025
MN,641,42,102,1007900,10079003002,10014,86 JANE STREET,R6,,,,02,,JANE 86 LLC,3.0000000,5,942750.00000,1858,0,0,Greenwich Village Historic District,,1006410042.00000000,40.7379698,-74.0074407
MN,641,49,102,1007900,10079003002,10014,74 JANE STREET,R6,,,,01,,"PENNEY, DAVID JEFFREY",3.0000000,5,411480.00000,1855,1986,2009,Greenwich Village Historic District,,1006410049.00000000,40.7379671,-74.0069825
MN,641,58,102,1007900,10079003002,10014,802 GREENWICH STREET,R6,,,,04,,"JEFFREY A. LEVITT, AS TRUSTEE",3.0000000,3,1901520.00000,1944,1989,2011,Greenwich Village Historic District,,1006410058.00000000,40.7377750,-74.0067010
MN,641,59,102,1007900,10079003002,10014,337 WEST 12 STREET,R6,,,,01,,337 WEST 12TH TRUST,3.0000000,5,387780.00000,1847,0,0,Greenwich Village Historic District,,1006410059.00000000,40.7377146,-74.0068453
MN,641,75,102,1007900,10079003002,10014,361 WEST 12 STREET,C4-4A,R6,,,04,,775 WASHINGTON OPCO LLC,2.0000000,3,3895200.00000,1925,0,0,Greenwich Village Historic District,,1006410075.00000000,40.7377530,-74.0078629
MN,642,49,102,1007900,10079003001,10014,80 HORATIO STREET,R6,,,,02,,80 HORATIO ST CORP,5.0000000,5,3216600.00000,1853,1986,0,Greenwich Village Historic District,,1006420049.00000000,40.7385764,-74.0073001
MN,642,66,102,1007900,10079003001,10014,77 JANE STREET,R6,,,,02,,77 JANE LLC,3.0000000,5,975420.00000,1847,0,0,Greenwich Village Historic District,,1006420066.00000000,40.7383239,-74.0071521
MN,642,69,102,1007900,10079003001,10014,83 JANE STREET,R6,,,,02,,"WEXLER, TANYA",4.0000000,5,1169340.00000,1854,0,0,Greenwich Village Historic District,,1006420069.00000000,40.7383239,-74.0073867
MN,643,54,102,1007900,10079003000,10014,842 GREENWICH STREET,M1-5,,,,05,,"46-50 GANSEVOORT STREET, LLC",2.0000000,3,3482550.00000,1939,2004,0,Gansevoort Market Historic District,,1006430054.00000000,40.7392050,-74.0067047
MN,643,57,102,1007900,10079003000,10014,838 GREENWICH STREET,R6,M1-5,,,03,,838 GREENWICH ST CORP,4.0000000,5,2414250.00000,1981,1981,0,Gansevoort Market Historic District,,1006430057.00000000,40.7390486,-74.0067119
MN,643,62,102,1007900,10079003000,10014,65 HORATIO STREET,R6,,,,01,,65 HORATIO LLC,3.0000000,5,348600.00000,1845,0,0,Greenwich Village Historic District,,1006430062.00000000,40.7388592,-74.0068346
MN,643,64,102,1007900,10079003000,10014,69 HORATIO STREET,R6,,,,02,,AMAMPURI REALTY LLC,3.0000000,5,2211750.00000,1836,0,0,Greenwich Village Historic District,,1006430064.00000000,40.7389388,-74.0070223
MN,643,65,102,1007900,10079003000,10014,71 HORATIO STREET,R6,,,,02,,"MERYMAN, ELIZABETH",3.0000000,5,984420.00000,1836,0,0,Greenwich Village Historic District,,1006430065.00000000,40.7389388,-74.0071016
MN,643,71,102,1007900,10079003000,10014,83 HORATIO STREET,R6,,,,01,,"HORATIO PROPERTY, LLC",3.0000000,5,660060.00000,1853,0,0,Greenwich Village Historic District,,1006430071.00000000,40.7389360,-74.0076032
MN,644,36,102,1007900,10079001012,10014,829 WASHINGTON STREET,M1-5,,,,05,,817-33 WASHINGTON STREET LLC,2.0000000,5,626400.00000,1880,0,0,Gansevoort Market Historic District,,1006440036.00000000,40.7398856,-74.0078126
MN,645,62,102,1007900,10079001011,10014,835 WASHINGTON STREET,M1-5,,,,05,,"835 WASHINGTON STREET, LLC",2.0000000,3,1814850.00000,1927,2004,2014,Gansevoort Market Historic District,,1006450062.00000000,40.7404291,-74.0076575
MN,646,14,102,1007900,10079001001,10014,446 WEST 14 STREET,M1-5,,,,05,,"446 WEST 14TH STREET ASOCIATES, LLC",3.0000000,5,3826350.00000,1937,2010,2010,Gansevoort Market Historic District,,1006460014.00000000,40.7415737,-74.0075963
MN,646,27,102,1007900,10079001000,10014,428 WEST 14 STREET,M1-5,,,,05,,875 WASHINGTON STREET OWNER LLC,5.0000000,3,11753100.00000,1887,1984,2015,Gansevoort Market Historic District,,1006460027.00000000,40.7411812,-74.0070586
MN,646,29,102,1007900,10079001000,10014,426 WEST 14 STREET,M1-5,,,,05,,BEN'OUS REALTY INC,6.0000000,5,2192850.00000,1910,2015,0,Gansevoort Market Historic District,,1006460029.00000000,40.7412553,-74.0068457
MN,646,37,102,1007900,10079001000,10014,410 WEST 14 STREET,M1-5,,,,02,,AMCOJOR REALTY CORP,3.0000000,5,1680750.00000,1909,0,0,Gansevoort Market Historic District,,1006460037.00000000,40.7409891,-74.0062141
MN,646,38,102,1007900,10079001000,10014,408 WEST 14 STREET,M1-5,,,,05,,404 WEST LLC,4.0000000,5,6998850.00000,1891,2003,2003,Gansevoort Market Historic District,,1006460038.00000000,40.7409041,-74.0060156
MN,646,43,102,1007900,10079001000,10014,400 WEST 14 STREET,M1-5,,,,05,,SAAB ASSOCIATES,5.0000000,3,6448500.00000,1886,0,0,Gansevoort Market Historic District,,1006460043.00000000,40.7408025,-74.0057775
MN,646,56,102,1007900,10079001000,10014,419 WEST 13 STREET,M1-5,,,,05,,MAILLOFF INC,6.0000000,5,1602900.00000,1900,2016,0,Gansevoort Market Historic District,,1006460056.00000000,40.7409040,-74.0067951
MN,646,7501,102,1007900,10079001000,10014,415 WEST 13 STREET,M1-5,,,,05,,UNAVAILABLE OWNER,5.0000000,0,26528400.00000,1901,2002,0,Gansevoort Market Historic District,,1006467501.00000000,40.7408930,-74.0065064
MN,646,7503,102,1007900,10079001000,10014,29 9 AVENUE,M1-5,,,,05,,UNAVAILABLE OWNER,6.0000000,0,12673800.00000,1903,0,0,Gansevoort Market Historic District,,1006467503.00000000,40.7405912,-74.0060517
MN,635,34,102,1007900,10079003004,10014,107 BANK STREET,R6,,,,02,,107 TH LLC,3.0000000,5,868320.00000,1846,2005,0,Greenwich Village Historic District,,1006350034.00000000,40.7365563,-74.0071122
MN,635,40,102,1007900,10079003004,10014,119 BANK STREET,R6,,,,02,,117 LIMITED PARTNERSHIP,5.0000000,5,1605150.00000,1884,0,0,Greenwich Village Historic District,,1006350040.00000000,40.7365178,-74.0075957
MN,635,41,102,1007900,10079003004,10014,121 BANK STREET,R6,,,,02,,117 LIMITED PARTNERSHIP,5.0000000,5,1936800.00000,1884,0,0,Greenwich Village Historic District,,1006350041.00000000,40.7364959,-74.0076643
MN,635,46,102,1007900,10079003004,10014,129 BANK STREET,C1-6A,,,,01,,"GRIMES, JOHN M.",3.0000000,5,284340.00000,1855,0,0,Greenwich Village Historic District,,1006350046.00000000,40.7363531,-74.0079205
MN,635,7501,102,1007900,10079003004,10014,33 BETHUNE STREET,R6,,,,03,,PICKWICK HOUSE INC,6.0000000,5,4115701.00000,1886,0,0,Greenwich Village Historic District,,1006357501.00000000,40.7367896,-74.0076679
MN,635,7502,102,1007900,10079003004,10014,131 BANK STREET,C1-6A,,,,04,,UNAVAILABLE OWNER,5.0000000,0,2283098.00000,1899,0,0,Greenwich Village Historic District,,1006357502.00000000,40.7363120,-74.0080865
MN,635,7503,102,1007900,10079003004,10014,751 WASHINGTON STREET,C1-6A,,,,02,,UNAVAILABLE OWNER,,0,413160.00000,1842,0,0,Greenwich Village Historic District,,1006357503.00000000,40.7368143,-74.0080432
MN,636,4,102,1007500,10075001008,10014,391 WEST STREET,C1-6A,,,,04,,"391 WEST STREET, LLC",5.0000000,5,1919250.00000,1902,1984,0,Weehawken Street Historic District,,1006360004.00000000,40.7328342,-74.0099804
MN,636,40,102,1007500,10075001007,10014,185 CHRISTOPHER STREET,C1-6A,,,,04,,"ANDREW WAXTEL, TRUSTEE",3.0000000,3,1920150.00000,1837,0,0,Weehawken Street Historic District,,1006360040.00000000,40.7326860,-74.0097314
MN,637,63,102,1007500,10075002002,10014,354 WEST 11 STREET,C1-6A,,,,02,,FV STREETS OF NEW YORK LLC,3.0000000,5,743040.00000,1842,0,0,Individual Landmark,INDIVIDUAL LANDMARK,1006370063.00000000,40.7352250,-74.0088477
MN,640,41,102,1007900,10079003003,10014,356 WEST 12 STREET,R6,C1-6A,,,05,,"356 WEST 12TH STREET, LLC",1.0000000,4,2131200.00000,1922,0,0,Greenwich Village Historic District,,1006400041.00000000,40.7372534,-74.0077438
MN,640,53,102,1007900,10079003003,10014,334 WEST 12 STREET,R6,,,,01,,"334W12, LLC",4.0000000,5,539400.00000,1854,0,0,Greenwich Village Historic District,,1006400053.00000000,40.7374127,-74.0068417
MN,640,54,102,1007900,10079003003,10014,332 WEST 12 STREET,R6,,,,01,,MATTESON  GEORGE A,3.0000000,5,335760.00000,1854,0,0,Greenwich Village Historic District,,1006400054.00000000,40.7374127,-74.0067695
MN,640,56,102,1007900,10079003003,10014,328 WEST 12 STREET,R6,,,,02,,328 MANAGEMENT INC,5.0000000,3,2397600.00000,1877,0,0,Greenwich Village Historic District,,1006400056.00000000,40.7374127,-74.0066179
MN,640,73,102,1007900,10079003003,10014,38 BETHUNE STREET,R6,,,,01,,38 BETHUNE STREET LLC,3.0000000,5,1067640.00000,1927,2005,0,Greenwich Village Historic District,,1006400073.00000000,40.7371382,-74.0076247
MN,641,39,102,1007900,10079003002,10014,92 JANE STREET,R6,C4-4A,,,02,,"COHEN, LYOR",3.0000000,5,1989450.00000,1858,2005,0,Greenwich Village Historic District,,1006410039.00000000,40.7379808,-74.0076789
MN,642,52,102,1007900,10079003001,10014,72 HORATIO STREET,R6,,,,03,,72 HORATIO ST OWNERS CORP,4.0000000,5,5134950.00000,1907,2010,0,Greenwich Village Historic District,,1006420052.00000000,40.7385737,-74.0069861
MN,642,56,102,1007900,10079003001,10014,828 GREENWICH STREET,R6,,,,02,,"TGOE PROPERTIES, LLC",2.0000000,5,772380.00000,1839,0,0,Greenwich Village Historic District,,1006420056.00000000,40.7385984,-74.0066866
MN,642,57,102,1007900,10079003001,10014,822 GREENWICH STREET,R6,,,,03,,GREENWICH CORP,3.0000000,4,2402100.00000,1957,1983,0,Greenwich Village Historic District,,1006420057.00000000,40.7384996,-74.0067444
MN,642,63,102,1007900,10079003001,10014,71 JANE STREET,R6,,,,01,,"LOUPIS, KYRIACOS",3.0000000,5,750900.00000,1847,1971,0,Greenwich Village Historic District,,1006420063.00000000,40.7383239,-74.0069320
MN,644,37,102,1007900,10079001012,10014,831 WASHINGTON STREET,M1-5,,,,05,,817-33 WASHINGTON STREET LLC,2.0000000,5,895050.00000,1880,0,0,Gansevoort Market Historic District,,1006440037.00000000,40.7399488,-74.0077910
MN,644,54,102,1007900,10079001012,10014,7 9 AVENUE,M1-5,,,,04,,"LITTLE WEST 12TH STREET REALTY, L.P.",4.0000000,3,2354850.00000,1849,2006,0,Gansevoort Market Historic District,,1006440054.00000000,40.7396359,-74.0066579
MN,644,55,102,1007900,10079001012,10014,5 9 AVENUE,M1-5,,,,01,,"LITTLE WEST 12TH STREET REALTY, L.P.",3.0000000,5,409920.00000,1849,0,0,Gansevoort Market Historic District,,1006440055.00000000,40.7395865,-74.0066939
MN,644,64,102,1007900,10079001012,10014,69 GANSEVOORT STREET,M1-5,,,,05,,DELSHAH GANSEVOORT 69 LLC,2.0000000,5,1429650.00000,1949,2015,2015,Gansevoort Market Historic District,,1006440064.00000000,40.7395975,-74.0075600
MN,645,29,102,1007900,10079001011,10014,416 WEST 13 STREET,M1-5,,,,05,,"GREENWAY MEWS RELATY,",3.0000000,4,21515850.00000,1902,2014,0,Gansevoort Market Historic District,,1006450029.00000000,40.7403413,-74.0071668
MN,645,38,102,1007900,10079001011,10014,406 WEST 13 STREET,M1-5,,,,05,,CA 406 WEST 13TH STREET LLC,2.0000000,5,414900.00000,1846,1988,0,Gansevoort Market Historic District,,1006450038.00000000,40.7403167,-74.0065100
MN,645,49,102,1007900,10079001011,10014,19 9 AVENUE,M1-5,,,,04,,9TH AVENUE DELAWARE OWNER LLC,5.0000000,3,8248950.00000,1889,2015,0,Gansevoort Market Historic District,,1006450049.00000000,40.7399928,-74.0065244
MN,612,46,102,1007100,10071004002,10014,7 AVENUE,C2-6,,,,,,VALERIE SHAKESPEARE,,8,464.00000,0,0,0,,,1006120046.00000000,40.7355163,-74.0015263
MN,584,19,102,1006700,10067004002,10014,77 BARROW STREET,R6,,,,02,,BARROW GROVE ASSOCSINC,5.0000000,5,1501650.00000,1895,0,0,Greenwich Village Historic District,,1005840019.00000000,40.7313688,-74.0058308
MN,584,20,102,1006700,10067004002,10014,75 BARROW STREET,R6,,,,04,,"PRIDE ROCK, LLC",6.0000000,3,1783800.00000,1912,0,0,Greenwich Village Historic District,,1005840020.00000000,40.7313908,-74.0057153
MN,584,23,102,1006700,10067004002,10014,48 COMMERCE STREET,R6,,,,02,,"STEELE, NORMAN L",4.0000000,5,1352700.00000,1844,1983,0,Greenwich Village Historic District,,1005840023.00000000,40.7312755,-74.0057045
MN,584,24,102,1006700,10067004002,10014,46 COMMERCE STREET,R6,,,,02,,46 COMMERCE ST OWNERS CORP,3.5000000,3,1466550.00000,1844,0,0,Greenwich Village Historic District,,1005840024.00000000,40.7312453,-74.0056107
MN,584,49,102,1006700,10067004002,10014,59 MORTON STREET,R6,,,,02,,MF TOWNHOUSE LLC,3.5000000,5,1955700.00000,1828,0,0,Greenwich Village Historic District,,1005840049.00000000,40.7310998,-74.0059642
MN,585,17,102,1007300,10073003002,10014,8 GROVE STREET,R6,,,,01,,MOLONEY THOMAS J,3.0000000,5,275880.00000,1829,0,0,Greenwich Village Historic District,,1005850017.00000000,40.7322087,-74.0059138
MN,584,7501,102,1006700,10067004002,10014,442 HUDSON STREET,C1-6,R6,,,04,,Z H CONTROL CO,6.0000000,5,11493450.00000,1925,0,0,Greenwich Village Historic District,,1005847501.00000000,40.7312700,-74.0063070
MN,585,19,102,1007300,,10014,,R6,,,,,,,,,,,,,,,1005850019.00000000,40.7321351,-74.0058106
MN,585,31,102,1007300,10073003002,10014,64 BARROW STREET,R6,,,,02,,85 BEDFORD OWNERS INC,5.0000000,5,1400400.00000,1889,1986,0,Greenwich Village Historic District,,1005850031.00000000,40.7318464,-74.0055061
MN,591,53,102,1007300,10073004002,10014,108 7 AVENUE SOUTH,C4-5,,,,04,,108 7TH AVE. SOUTH INC.,3.0000000,4,1008900.00000,1925,0,0,Greenwich Village Historic District,,1005910053.00000000,40.7334412,-74.0031681
MN,591,54,102,1007300,10073004002,10014,110 7 AVENUE SOUTH,C4-5,,,,05,,"70 CHRISTOPHER REALTY,",1.0000000,3,380250.00000,1921,0,0,Greenwich Village Historic District,,1005910054.00000000,40.7334851,-74.0031031
MN,616,7501,102,1007700,10077002001,10014,2 HORATIO STREET,C1-6,,,,04,,"AVIRAM, KAREN",17.0000000,5,26738100.00000,1931,0,0,Greenwich Village Historic District,,1006167501.00000000,40.7385464,-74.0027136
MN,619,9,102,1007300,10073002000,10014,252 WEST 10 STREET,C1-6,,,,04,,HUDSON ASSOCIATES LLC,4.0000000,3,2679300.00000,1826,2005,0,Greenwich Village Historic District,,1006190009.00000000,40.7336716,-74.0060727
MN,619,20,102,1007300,10073002000,10014,230 WEST 10 STREET,R6,,,,01,,"BAKOS, YANNIS",3.0000000,5,898140.00000,1905,0,0,Greenwich Village Historic District,,1006190020.00000000,40.7336909,-74.0052140
MN,619,24,102,1007300,10073002000,10014,220 WEST 10 STREET,C1-6,,,,02,,WILLIAM GOTTLIEB,5.0000000,5,1516500.00000,1860,0,0,Greenwich Village Historic District,,1006190024.00000000,40.7337732,-74.0048567
MN,619,39,102,1007300,10073002000,10014,107 CHRISTOPHER STREET,R6,,,,04,,NYC CHRIS HOLDINGS LLC,6.0000000,5,3541950.00000,1904,1987,0,Greenwich Village Historic District,,1006190039.00000000,40.7334493,-74.0051346
MN,619,46,102,1007300,10073002000,10014,121 CHRISTOPHER STREET,R6,,,,05,X,LUCILLE LORTEL THEATRE FOUNDATIN INC.,3.0000000,5,798300.00000,1868,1984,0,Greenwich Village Historic District,,1006190046.00000000,40.7333560,-74.0057480
MN,619,63,102,1007300,10073004001,10014,198 WEST 10 STREET,R6,,,,02,,"198 W. 10TH STREET OWNER, LLC",4.0000000,5,1721700.00000,1839,1985,2008,Greenwich Village Historic District,,1006190063.00000000,40.7339352,-74.0037454
MN,619,81,102,1007300,10073004001,10014,85 CHRISTOPHER STREET,R6,C1-6,,,04,,CHRISTOPHER ST.ASSOCINC,6.0000000,5,1077750.00000,1872,1986,0,Greenwich Village Historic District,,1006190081.00000000,40.7336525,-74.0038609
MN,619,7501,102,1007300,10073002000,10014,115 CHRISTOPHER STREET,R6,,,,04,,CHRISTOPHER HOUSE,7.0000000,5,7355403.00000,1903,0,0,Greenwich Village Historic District,,1006197501.00000000,40.7334054,-74.0054376
MN,619,7502,102,1007300,10073004001,10014,204 WEST 10 STREET,R6,C1-6,,,04,,UNAVAILABLE OWNER,6.0000000,5,2232450.00000,1910,0,0,Greenwich Village Historic District,,1006197502.00000000,40.7338995,-74.0039835
MN,620,19,102,1007300,10073001002,10014,350 BLEECKER STREET,C1-6,,,,03,,350 BLEECKER ST APT CORP,7.0000000,3,16501500.00000,1963,1987,0,Greenwich Village Historic District,,1006200019.00000000,40.7342920,-74.0049253
MN,620,4,102,1007300,10073001002,10014,526 HUDSON STREET,C1-6,,,,04,,OUR NEIGHBORHOOD PLACE LLC,4.0000000,5,2782350.00000,1832,0,0,Greenwich Village Historic District,,1006200004.00000000,40.7340532,-74.0059393
MN,620,33,102,1007300,10073001002,10014,229 WEST 10 STREET,C1-6,,,,08,C,NYC POLICE DEPARTMENT,2.0000000,4,5164650.00000,1969,0,0,Greenwich Village Historic District,,1006200033.00000000,40.7342206,-74.0054052
MN,620,47,102,1007300,10073004000,10014,361 BLEECKER STREET,C1-6,,,,04,,"LIPMAN-WULF, LLC",3.0000000,5,508800.00000,1901,0,0,Greenwich Village Historic District,,1006200047.00000000,40.7345006,-74.0044924
MN,620,50,102,1007300,10073004000,10014,94 CHARLES STREET,C1-6,,,,04,,THE 94 CHARLES STREET REVOCABLE INTER VI VOS,3.0000000,5,522420.00000,1855,2012,2014,Greenwich Village Historic District,,1006200050.00000000,40.7345912,-74.0044202
MN,620,56,102,1007300,10073004000,10014,82 CHARLES STREET,R6,,,,02,,80 82 CHARLES ST OWNERS CORP,5.0000000,5,2353950.00000,1893,1987,0,Greenwich Village Historic District,,1006200056.00000000,40.7345857,-74.0039006
MN,620,58,102,1007300,10073004000,10014,78 CHARLES STREET,R6,,,,02,,SEVENTY EIGHT TENANT CORP,5.0000000,5,1181700.00000,1897,1978,0,Greenwich Village Historic District,,1006200058.00000000,40.7346077,-74.0037635
MN,620,64,102,1007300,10073004000,10014,66 CHARLES STREET,R6,,,,01,,"ATKINS, KATHLEEN",3.0000000,5,523860.00000,1861,2015,0,Greenwich Village Historic District,,1006200064.00000000,40.7347449,-74.0033016
MN,620,66,102,1007300,10073004000,10014,244 WEST 4 STREET,R6,,,,02,,242-244 OWNERS CORP,5.0000000,5,982350.00000,1884,1969,0,Greenwich Village Historic District,,1006200066.00000000,40.7346324,-74.0033016
MN,621,37,102,1007300,10073005001,10014,375 BLEECKER STREET,C1-6,,,,04,,LUIS MARQUES          #,5.0000000,5,2034000.00000,1867,2012,2008,Greenwich Village Historic District,,1006210037.00000000,40.7350166,-74.0046295
MN,621,41,102,1007300,10073005001,10014,383 BLEECKER STREET,C1-6,,,,02,,88 PERRY OWNER LLC,5.0000000,3,3160350.00000,1868,1979,0,Greenwich Village Historic District,,1006210041.00000000,40.7352362,-74.0047161
MN,621,42,102,1007300,10073005001,10014,86 PERRY STREET,C1-6,,,,02,,86 PERRY STREET LLC,5.0000000,5,1710900.00000,1868,0,0,Greenwich Village Historic District,,1006210042.00000000,40.7352252,-74.0045574
MN,622,16,102,1007300,10073001000,10014,400 BLEECKER STREET,C1-6,,,,04,,"400 BLEECKER STREET CO.,",5.0000000,3,2940300.00000,1888,0,0,Greenwich Village Historic District,,1006220016.00000000,40.7357906,-74.0052069
MN,622,20,102,1007300,10073001000,10014,392 BLEECKER STREET,C1-6,,,,04,,CR32 PROPERTIES,3.0000000,5,373140.00000,1853,0,0,Greenwich Village Historic District,,1006220020.00000000,40.7355244,-74.0051780
MN,622,17,102,1007300,10073001000,10014,398 BLEECKER STREET,C1-6,,,,02,,BLEECKER AND 11 OWNERS CORP,4.0000000,5,1075500.00000,1910,2012,0,Greenwich Village Historic District,,1006220017.00000000,40.7356506,-74.0052141
MN,622,40,102,1007300,10073005000,10014,274 WEST 11 STREET,R6,,,,02,,"274 OWNERS, INC.",4.0000000,5,3089250.00000,1845,1976,0,Greenwich Village Historic District,,1006220040.00000000,40.7358455,-74.0043950
MN,622,56,102,1007300,10073005000,10014,53 PERRY STREET,R6,,,,03,,55 PERRY ST COMPANY LLC,6.0000000,3,5770350.00000,1903,1988,0,Greenwich Village Historic District,,1006220056.00000000,40.7357111,-74.0036012
MN,622,58,102,1007300,10073005000,10014,61 PERRY STREET,R6,,,,02,,"TARANTO, KENNETH",2.5000000,5,358740.00000,1905,0,0,Greenwich Village Historic District,,1006220058.00000000,40.7356754,-74.0037816
MN,622,61,102,1007300,10073005000,10014,67 PERRY STREET,R6,,,,02,,PERRYTWIN FLATS INC,5.0000000,5,6286950.00000,1878,1963,0,Greenwich Village Historic District,,1006220061.00000000,40.7356315,-74.0040775
MN,622,59,102,1007300,10073005000,10014,63 PERRY STREET,R6,,,,02,,63  PERRY STREET LLC,6.0000000,5,1233000.00000,1902,0,0,Greenwich Village Historic District,,1006220059.00000000,40.7356534,-74.0039187
MN,623,32,102,1007700,10077004002,10014,64 BANK STREET,R6,,,,02,,64 B STREET LLC,3.5000000,5,1614600.00000,1841,0,0,Greenwich Village Historic District,,1006230032.00000000,40.7365784,-74.0042363
MN,623,33,102,1007700,10077004002,10014,62 BANK STREET,R6,,,,01,,"LUHRING, LAWRENCE R",3.0000000,5,427440.00000,1836,0,0,Greenwich Village Historic District,,1006230033.00000000,40.7366086,-74.0041605
MN,623,38,102,1007700,10077004002,10014,296 WEST 4 STREET,R6,,,,02,,298 W 4 ST CORP,6.0000000,3,1030050.00000,1903,0,0,Greenwich Village Historic District,,1006230038.00000000,40.7367047,-74.0038322
MN,623,46,102,1007700,10077004002,10014,261 WEST 11 STREET,R6,,,,02,,JACK & PAULA F KAPLAN,4.0000000,5,1832400.00000,1868,0,0,Greenwich Village Historic District,,1006230046.00000000,40.7363698,-74.0039296
MN,623,53,102,1007700,10077004002,10014,277 WEST 11 STREET,R6,,,,02,,277 WEST 11TH LLC,6.0000000,5,2866500.00000,1906,2015,0,Greenwich Village Historic District,,1006230053.00000000,40.7362573,-74.0046585
MN,624,22,102,1007900,10079004005,10014,8 BETHUNE STREET,C1-6,,,,02,,8-10 BETHUNE/791 GREENWICH ST,5.0000000,0,1397700.00000,1896,0,0,Greenwich Village Historic District,,1006240022.00000000,40.7371190,-74.0062571
MN,624,30,102,1007700,10077004001,10014,4 8 AVENUE,C1-6,,,,04,,"11 ABINGDON SQUARE, LLC",5.0000000,5,1407150.00000,1856,0,0,Greenwich Village Historic District,,1006240030.00000000,40.7370230,-74.0051240
MN,624,31,102,1007700,10077004001,10014,8 8 AVENUE,C1-6,,,,03,,ALPERT CHARLES,6.0000000,5,3007350.00000,1927,1987,0,Greenwich Village Historic District,,1006240031.00000000,40.7371273,-74.0049147
MN,624,7502,102,1007700,10077004001,10014,69 BANK STREET,R6,C1-6,,,03,,UNAVAILABLE OWNER,4.0000000,5,3131099.00000,1905,0,0,Greenwich Village Historic District,,1006247502.00000000,40.7369270,-74.0046657
MN,624,7504,102,1007700,10077004001,10014,419 BLEECKER STREET,C1-6,,,,04,,ABINGDON COURT OWNERS CORP,6.0000000,5,10813950.00000,1938,0,0,Greenwich Village Historic District,,1006247504.00000000,40.7368693,-74.0050230
MN,625,14,102,1007900,10079004004,10014,613 HUDSON STREET,C1-6,,,,01,,"NATHAN, JULIA",3.0000000,5,379740.00000,1842,0,0,Greenwich Village Historic District,,1006250014.00000000,40.7377641,-74.0058710
MN,625,15,102,1007900,10079004004,10014,317 WEST 12 STREET,C1-6,,,,04,,CANDETA LLC,3.0000000,3,1311300.00000,1842,1975,2013,Greenwich Village Historic District,,1006250015.00000000,40.7376817,-74.0058818
MN,625,30,102,1007700,10077003005,10014,48 JANE STREET,C1-6,,,,02,,"DESARIO, VITO",3.0000000,5,706920.00000,1846,0,0,Greenwich Village Historic District,,1006250030.00000000,40.7379617,-74.0049581
MN,625,32,102,1007700,10077003005,10014,44 JANE STREET,C1-6,,,,01,,44 JANE LLC,3.0000000,5,916740.00000,1846,0,0,Greenwich Village Historic District,,1006250032.00000000,40.7379919,-74.0047921
MN,625,44,102,1007700,10077003005,10014,11 8 AVENUE,C1-6,,,,02,,WEST VILLAGE COMMONS LLC,5.0000000,3,2531250.00000,1845,0,0,Greenwich Village Historic District,,1006250044.00000000,40.7377312,-74.0049581
MN,625,62,102,1007700,10077004000,10014,283 WEST 12 STREET,C1-6,,,,04,,"283 WEST 12TH STREET,",4.0000000,3,1465650.00000,1840,1957,0,Greenwich Village Historic District,,1006250062.00000000,40.7377147,-74.0040090
MN,626,9,102,1007900,10079004003,10014,60 HORATIO STREET,R6,,,,01,,"WHITE, II, HERMAN",3.0000000,5,311460.00000,1846,0,0,Greenwich Village Historic District,,1006260009.00000000,40.7386232,-74.0061381
MN,626,32,102,1007700,10077003004,10014,40 HORATIO STREET,R6,,,,02,,HORATIO STREET PARTNERS LLC,5.0000000,5,2018700.00000,1871,0,0,Greenwich Village Historic District,,1006260032.00000000,40.7385683,-74.0048535
MN,626,36,102,1007700,10077003004,10014,30 HORATIO STREET,C1-6,R6,,,03,,JANE-HORATIO LLC,3.0000000,4,2690550.00000,1910,0,0,Greenwich Village Historic District,,1006260036.00000000,40.7384503,-74.0044962
MN,626,51,102,1007700,10077003004,10014,43 JANE STREET,R6,C1-6,,,02,,MICHAEL REALTY LLC,5.0000000,5,1777500.00000,1888,1985,0,Greenwich Village Historic District,,1006260051.00000000,40.7383213,-74.0047236
MN,627,11,102,1007900,10079004002,10014,645 HUDSON STREET,M1-5,,,,04,,KATZ-AUERBACHER CORP,4.0000000,5,1258200.00000,1840,0,0,Gansevoort Market Historic District,,1006270011.00000000,40.7391584,-74.0057088
MN,629,7505,102,1007700,10077003000,10014,325 WEST 13 STREET,C1-6,,,,02,,UNAVAILABLE OWNER,7.0000000,0,4520698.00000,2006,0,0,,,1006297505.00000000,40.7397733,-74.0041030
MN,630,5,102,1007500,10075001006,10014,657 WASHINGTON STREET,R6,,,,08,X,ARCHDIOCESE OF NEW YORK,4.0000000,5,468000.00000,1894,1986,0,Greenwich Village Historic District Extension,,1006300005.00000000,40.7330731,-74.0083675
MN,630,6,102,1007500,10075001006,10014,659 WASHINGTON STREET,R6,,,,02,,CITY LIFE LLC,5.0000000,5,3005100.00000,1886,0,0,Greenwich Village Historic District Extension,,1006300006.00000000,40.7331390,-74.0082881
MN,630,12,102,1007500,10075001006,10014,272 WEST 10TH STREET,R6,,,,08,X,VILLAGE COMMUNITY SCHOOL,5.0000000,1,3012750.00000,1920,0,0,Greenwich Village Historic District Extension,,1006300012.00000000,40.7333229,-74.0079418
MN,630,21,102,1007500,10075001006,10014,686 GREENWICH STREET,R6,,,,03,,MO-HAK ASSOCIATES LLC,5.0000000,5,5164200.00000,1869,1979,0,Greenwich Village Historic District Extension,,1006300021.00000000,40.7331089,-74.0077433
MN,630,26,102,1007500,10075001006,10014,149 CHRISTOPHER STREET,R6,,,,08,X,ARCHDIOCESE OF NEW YORK,1.0000000,5,1503900.00000,1903,1986,0,Greenwich Village Historic District Extension,,1006300026.00000000,40.7330018,-74.0080644
MN,630,30,102,1007500,10075003004,10014,679 GREENWICH STREET,R6,,,,04,,679 GREENWICH PROPERTY LLC,3.0000000,3,2504700.00000,1900,1987,0,Greenwich Village Historic District,,1006300030.00000000,40.7330293,-74.0072670
MN,630,43,102,1007500,10075003004,10014,511 HUDSON STREET,C1-6,,,,02,,HUDSON MEWS APT CORP,6.0000000,5,5579550.00000,1911,0,0,Greenwich Village Historic District,,1006300043.00000000,40.7333532,-74.0067041
MN,631,18,102,1007500,10075001005,10014,714 GREENWICH STREET,C1-6A,,,,02,,714 GREENWICH STREET LLC,5.0000000,5,2325150.00000,1889,0,0,Greenwich Village Historic District Extension,,1006310018.00000000,40.7340805,-74.0074547
MN,631,25,102,1007500,10075001005,10014,269 WEST 10 STREET,C1-6A,,,,02,,ROBERT ANTAR,3.0000000,5,439980.00000,1835,0,0,Greenwich Village Historic District Extension,,1006310025.00000000,40.7336606,-74.0076892
MN,631,39,102,1007500,10075003003,10014,533 HUDSON STREET,C1-6,,,,04,,NEVINS REALTY LLC,3.5000000,3,1228950.00000,1827,0,0,Greenwich Village Historic District,,1006310039.00000000,40.7343084,-74.0064733
MN,632,6,102,1007500,10075001000,10014,695 WASHINGTON STREET,C1-6A,,,,02,,PERRY WASHINGTON TENANTS CORP,4.0000000,3,5526000.00000,1911,1979,0,Greenwich Village Historic District Extension,,1006320006.00000000,40.7346184,-74.0081765
MN,632,36,102,1007500,10075003002,10014,121 CHARLES STREET,R6,,,,01,,SURI BIELER,2.0000000,3,257880.00000,1810,0,0,Greenwich Village Historic District,,1006320036.00000000,40.7344648,-74.0068702
MN,632,48,102,1007500,10075003002,10014,549 HUDSON STREET,C1-6,,,,04,,PERRY 112-114 LLC,5.0000000,3,1824300.00000,1891,0,0,Greenwich Village Historic District,,1006320048.00000000,40.7349863,-74.0064156
